[
 {
   "id": 1,
   "title": "Alamo Casino - Blue Diamond & I-15",
   "address": "8050 Dean Martin Drive \\nLas Vegas, NV 89139 US",
   "state": "NV",
   "url": "http://www.thealamo.com/alamo-casino-las-vegas-ta/",
   "category": ["Full Service Sports Book", "Sports Betting Kiosk"],
   "longitude": -115.1863936,
   "latitude": 36.043321,
   "hours": "Monday: 10:00 a.m. to 7:30 p.m.\\nTuesday: 10:00 a.m. to 7:30 p.m.\\nWednesday: 10:00 a.m. to 7:30 p.m.\\nThursday: 10:00 a.m. to 7:30 p.m.\\nFriday: 10:00 a.m. to 8:00 p.m.\\nSaturday: 7:30 a.m. to 9:00 p.m.\\nSunday: 7:30 a.m. to 7:30 p.m.",
   "phone": "702-361-1176"
 },
 {
   "id": 2,
   "title": "Sneakers Bar & Grill #3",
   "address": "1380 Disc Dr. \\nSparks, NV 89436 US",
   "state": "NV",
   "url": "http://sneakers-barandgrill.com/",
   "category": ["Mobile Deposit Kiosk", "Nevada"],
   "longitude": -119.7198943,
   "latitude": 39.5778593,
   "hours": "",
   "phone": "775-200-0487"
 },
 {
   "id": 3,
   "title": "Scolari's Food & Company",
   "address": "3310 S. McCarran Blvd \\nReno, NV 89502 US",
   "state": "NV",
   "url": "http://www.scolaristores.com/",
   "category": ["Mobile Deposit Kiosk", "Nevada"],
   "longitude": -119.7464159,
   "latitude": 39.4842768,
   "hours": "",
   "phone": "775-825-5201"
 },
 {
   "id": 4,
   "title": "Coach's Grill & Sports Bar #1",
   "address": "1573 S. Virginia St \\nReno, NV 89502 US",
   "state": "NV",
   "url": "",
   "category": ["Mobile Deposit Kiosk", "Nevada"],
   "longitude": -119.8051483,
   "latitude": 39.50851,
   "hours": "",
   "phone": "775-329-2202"
 },
 {
   "id": 5,
   "title": "Chewy & Jug's",
   "address": "3629 Kings Row \\nReno, NV 89503 US",
   "state": "NV",
   "url": "",
   "category": ["Mobile Deposit Kiosk", "Nevada"],
   "longitude": -119.8568215,
   "latitude": 39.5427293,
   "hours": "",
   "phone": "775-747-7887"
 },
 {
   "id": 6,
   "title": "Coach's Grill & Sports Bar #2",
   "address": "4050 S. McCarran Blvd Ste A\\nReno, NV 89511 US",
   "state": "NV",
   "url": "",
   "category": ["Mobile Deposit Kiosk", "Nevada"],
   "longitude": -119.7667451,
   "latitude": 39.4763255,
   "hours": "",
   "phone": "775-499-5155"
 },
 {
   "id": 7,
   "title": "The Lake Bar & Grill",
   "address": "9716 Pyramid Way \\nSparks, NV 89441 US",
   "state": "NV",
   "url": "http://lakebarandgrill.com",
   "category": ["Mobile Deposit Kiosk", "Nevada"],
   "longitude": -119.7100829,
   "latitude": 39.6407363,
   "hours": "",
   "phone": "775-424-5253"
 },
 {
   "id": 8,
   "title": "Pete's Gambling Hall",
   "address": "1985 W Winnemucca Blvd \\nWinnemucca, NV 89445 US",
   "state": "NV",
   "url": "http://winnersinn.com/pete-s-gambling-hall",
   "category": ["Nevada", "Sports Betting Kiosk"],
   "longitude": -117.7488086,
   "latitude": 40.9571761,
   "hours": "",
   "phone": "(775) 625-1777"
 },
 {
   "id": 9,
   "title": "Hard Rock Hotel & Casino Lake Tahoe",
   "address": "50 HIGHWAY 50 \\nSTATELINE, NV 89449 US",
   "state": "NV",
   "url": "http://hardrockcasinolaketahoe.com/",
   "category": ["Full Service Sports Book", "Nevada", "Sports Betting Kiosk"],
   "longitude": -119.9417263,
   "latitude": 38.9627125,
   "hours": "Monday: 8:00 a.m. to 10:00 p.m.\\nTuesday: 8:00 a.m. to 10:00 p.m.\\nWednesday: 8:00 a.m. to 10:00 p.m.\\nThursday: 8:00 a.m. to 10:00 p.m.\\nFriday: 8:00 a.m. to 10:00 p.m.\\nSaturday: 8:00 a.m. to 10:00 p.m.\\nSunday: 8:00 a.m. to 10:00 p.m.\\n\\n\\n",
   "phone": "844-588-7625"
 },
 {
   "id": 10,
   "title": "Horseshu Hotel & Casino",
   "address": "1220 U.S. 93 \\nJackpot, NV 89825 US",
   "state": "NV",
   "url": "http://www.ameristar.com/",
   "category": ["Nevada", "Sports Betting Kiosk"],
   "longitude": -114.6735107,
   "latitude": 41.9844488,
   "hours": "\\nMonday: 7:30 a.m. to 11:00 p.m.\\n Tuesday: 7:30 a.m. to 11:00 p.m.\\nWednesday: 7:30 a.m. to 11:00 p.m.\\nThursday: 7:30 a.m. to 11:00 p.m.\\nFriday: 7:30 a.m. to 11:00 p.m.\\nSaturday: 7:30 a.m. to 11:00 p.m.\\nSunday: 7:30 a.m. to 11:00 p.m.",
   "phone": "(866) 667-3386"
 },
 {
   "id": 11,
   "title": "Prospector Hotel & Casino",
   "address": "1501 E Aultman St \\nEly, NV 89301 US",
   "state": "NV",
   "url": "http://prospectorhotel.us/",
   "category": ["Nevada", "Sports Betting Kiosk"],
   "longitude": -114.8595833,
   "latitude": 39.2584123,
   "hours": "\\n\\nMonday: 7:30 a.m. to 11:00 p.m.\\n Tuesday: 7:30 a.m. to 11:00 p.m.\\nWednesday: 7:30 a.m. to 11:00 p.m.\\nThursday: 7:30 a.m. to 11:00 p.m.\\nFriday: 7:30 a.m. to 11:00 p.m.\\nSaturday: 7:30 a.m. to 11:00 p.m.\\nSunday: 7:30 a.m. to 11:00 p.m.",
   "phone": "(775) 289-8900"
 },
 {
   "id": 12,
   "title": "Bonanza Inn & Casino",
   "address": "855 W. Williams Ave. \\nFallon, NV 89406 US",
   "state": "NV",
   "url": "",
   "category": ["Nevada", "Sports Betting Kiosk"],
   "longitude": -118.7872972,
   "latitude": 39.4743293,
   "hours": "",
   "phone": ""
 },
 {
   "id": 13,
   "title": "Wahoo's Fish Taco - Sunset",
   "address": "7020 W. Sunset Rd. \\nLas Vegas, NV 89113 US",
   "state": "NV",
   "url": "http://wahoos.com/blog/tag/sunset/",
   "category": ["Mobile Deposit Kiosk", "Nevada"],
   "longitude": -115.2447812,
   "latitude": 36.0707736,
   "hours": "",
   "phone": "(702) 399-1665"
 },
 {
   "id": 14,
   "title": "Brooksy's Bar & Grill",
   "address": "9295 W. Flamingo Rd. Suite #100\\nLas Vegas, NV 89147 US",
   "state": "NV",
   "url": "http://www.brooksys.net/",
   "category": ["Mobile Deposit Kiosk", "Nevada"],
   "longitude": -115.294239,
   "latitude": 36.113903,
   "hours": "",
   "phone": "(702) 562-2050"
 },
 {
   "id": 15,
   "title": "Sierra Gold - Buffalo & Smoke Ranch",
   "address": "2400 North Buffalo Drive \\nLas Vegas, NV  US",
   "state": "NV",
   "url": "http://ptstaverns.com/sportsbets",
   "category": ["Mobile Deposit Kiosk", "Nevada"],
   "longitude": -115.259958,
   "latitude": 36.204018,
   "hours": "",
   "phone": ""
 },
 {
   "id": 16,
   "title": "Sierra Gold - Warm Springs & Stephanie",
   "address": "1341 W Warm Springs Rd. \\nHenderson, NV 89014 US",
   "state": "NV",
   "url": "http://ptstaverns.com/sportsbets",
   "category": ["Mobile Deposit Kiosk", "Nevada"],
   "longitude": -115.0437731,
   "latitude": 36.055938,
   "hours": "",
   "phone": "702.547.0142"
 },
 {
   "id": 17,
   "title": "Sierra Gold - 215 & Aliante Pkwy",
   "address": "6929 Aliante Pkwy \\nNorth Las Vegas, NV 89084 US",
   "state": "NV",
   "url": "http://ptstaverns.com/sportsbets",
   "category": ["Mobile Deposit Kiosk", "Nevada"],
   "longitude": -115.178472,
   "latitude": 36.28633,
   "hours": "",
   "phone": "702.658.2593"
 },
 {
   "id": 18,
   "title": "Sierra Gold - 215 & S Jones",
   "address": "6515 S. Jones Road \\nLas Vegas, NV 89118 US",
   "state": "NV",
   "url": "http://ptstaverns.com/sportsbets",
   "category": ["Mobile Deposit Kiosk", "Nevada"],
   "longitude": -115.22453,
   "latitude": 36.0707002,
   "hours": "",
   "phone": "702.221.4120"
 },
 {
   "id": 19,
   "title": "Winners Hotel & Casino",
   "address": "185 Winnemucca \\nWinnemucca, NV 89445 US",
   "state": "NV",
   "url": "http://winnerscasino.com/",
   "category": ["Nevada", "Sports Betting Kiosk"],
   "longitude": -117.736097,
   "latitude": 40.9723668,
   "hours": "",
   "phone": "(800)-648-4770"
 },
 {
   "id": 20,
   "title": "CPunch Ranch Inn & Casino",
   "address": "1420 Cornell Avenue \\nLovelock, NV 89419 US",
   "state": "NV",
   "url": "http://www.cpunchinnandcasino.com/",
   "category": ["Nevada", "Sports Betting Kiosk"],
   "longitude": -118.4704141,
   "latitude": 40.1852511,
   "hours": "\\n",
   "phone": "(775)273-2971"
 },
 {
   "id": 21,
   "title": "Stockmen's Hotel & Casino",
   "address": "340 Commercial Street \\nElko, NV 89801 US",
   "state": "NV",
   "url": "http://www.stockmenscasinos.com/casino/casino.html",
   "category": ["Nevada", "Sports Betting Kiosk"],
   "longitude": -115.763325,
   "latitude": 40.8305599,
   "hours": "",
   "phone": "(800)-648-2345"
 },
 {
   "id": 22,
   "title": "Stockman's Casino - Fallon",
   "address": "1560 W. Williams Avenue \\nFallon, NV 89406 US",
   "state": "NV",
   "url": "http://www.stockmanscasino.com/",
   "category": ["Nevada", "Sports Betting Kiosk"],
   "longitude": -118.794199,
   "latitude": 39.475508,
   "hours": "",
   "phone": "(855) 423-2117"
 },
 {
   "id": 23,
   "title": "Red Garter Hotel & Casino",
   "address": "1225 W. Wendover Boulevard \\nWendover, NV 89883 US",
   "state": "NV",
   "url": "http://www.redgartercasino.com/",
   "category": ["Nevada", "Sports Betting Kiosk"],
   "longitude": -114.066542,
   "latitude": 40.737805,
   "hours": "\\n\\nMonday: KIOSK ONLY\\nTuesday: KIOSK ONLY\\nWednesday: KIOSK ONLY\\nThursday: KIOSK ONLY\\nFriday: KIOSK ONLY\\nSaturday: KIOSK ONLY\\nSunday: KIOSK ONLY\\n *Mountain Time",
   "phone": "(800) 982-2111"
 },
 {
   "id": 24,
   "title": "Railroad Pass Hotel & Casino",
   "address": "2800 S. Boulder Highway \\nHenderson, NV 89015 US",
   "state": "NV",
   "url": "http://www.railroadpass.com/",
   "category": ["Full Service Sports Book", "Nevada", "Sports Betting Kiosk"],
   "longitude": -114.9089149,
   "latitude": 35.9694414,
   "hours": "Monday: 10:00 a.m. to 7:30 p.m.\\nTuesday: 10:00 a.m. to 7:30 p.m.\\nWednesday: 10:00 a.m. to 7:30 p.m.\\nThursday: 10:00 a.m. to 7:30 p.m.\\nFriday: 10:00 a.m. to 7:30 p.m\\nSaturday: 8:30 a.m. to 8:30 p.m.\\nSunday: 8:30 a.m. to 5:30 p.m.",
   "phone": "(702) 294-5000"
 },
 {
   "id": 25,
   "title": "Pahrump Nugget Hotel & Gambling Hall",
   "address": "681 S Highway 160 \\nPahrump, NV 89048 US",
   "state": "NV",
   "url": "http://pahrumpnugget.com/",
   "category": ["Full Service Sports Book", "Nevada", "Race Book", "Sports Betting Kiosk, \"Virtual Racing"],
   "longitude": -115.984805,
   "latitude": 36.210273,
   "hours": "Monday: 8:00 a.m. to 10:00 p.m.\\nTuesday: 8:00 a.m. to 10:00 p.m.\\nWednesday: 8:00 a.m. to 10:00 p.m.\\nThursday: 8:00 a.m. to 10:00 p.m.\\nFriday: 8:00 a.m. to 10:00 p.m.\\nSaturday: 8:00 a.m. to 10:00 p.m.\\nSunday: 8:00 a.m. to 10:00 p.m.",
   "phone": "(775) 751-6500"
 },
 {
   "id": 26,
   "title": "Hooters Hotel & Casino",
   "address": "115 E Tropicana Avenue \\nLas Vegas, NV 89109 US",
   "state": "NV",
   "url": "http://www.hooterscasinohotel.com/",
   "category": ["Full Service Sports Book", "Nevada", "Sports Betting Kiosk"],
   "longitude": -115.167501,
   "latitude": 36.099809,
   "hours": "***NEWLY REMODELED***\\n\\nMonday: 8:00 a.m. to 10:00 p.m.\\nTuesday: 8:00 a.m. to 10:00 p.m.\\nWednesday: 8:00 a.m. to 10:00 p.m.\\nThursday: 8:00 a.m. to 10:00 p.m.\\nFriday: 8:00 a.m. to 11:00 p.m.\\nSaturday: 7:30 a.m. to 11:00 p.m.\\nSunday: 7:30 a.m. to 10:00 p.m.",
   "phone": "(866) 584-6687"
 },
 {
   "id": 27,
   "title": "Golden Gate Hotel & Casino",
   "address": "1 Fremont Street \\nLas Vegas, NV 89101 US",
   "state": "NV",
   "url": "http://goldengatecasino.com/",
   "category": ["Nevada", "Sports Betting Kiosk"],
   "longitude": -115.1417892,
   "latitude": 36.1697228,
   "hours": "",
   "phone": "(702) 385-1906"
 },
 {
   "id": 28,
   "title": "El Capitan Resort & Casino",
   "address": "540 F Street \\nHawthorne, NV 89415 US",
   "state": "NV",
   "url": "http://www.northernstarcasinos.com/el-capitan-lodge-casino",
   "category": ["Nevada", "Sports Betting Kiosk"],
   "longitude": -118.6238054,
   "latitude": 38.5245422,
   "hours": "",
   "phone": "(800) 922-2311"
 },
 {
   "id": 29,
   "title": "Edgewater Hotel & Casino",
   "address": "2020 S Casino Drive \\nLaughlin, NV 89029 US",
   "state": "NV",
   "url": "http://www.edgewater-casino.com/",
   "category": ["Full Service Sports Book", "Nevada", "Race Book", "Sports Betting Kiosk"],
   "longitude": -114.572684,
   "latitude": 35.16145,
   "hours": "Monday: 8:00 a.m. to 10:00 p.m.\\nTuesday: 8:00 a.m. to 10:00 p.m.\\nWednesday: 8:00 a.m. to 10:00 p.m.\\nThursday: 8:00 a.m. to 10:00 p.m.\\nFriday: 8:00 a.m. to 10:00 p.m.\\nSaturday: 8:00 a.m. to 10:00 p.m.\\nSunday: 8:00 a.m. to 10:00 p.m.",
   "phone": "(702) 298-2453"
 },
 {
   "id": 30,
   "title": "Dini's Lucky Club",
   "address": "45 Main Street \\nYerington, NV 89447 US",
   "state": "NV",
   "url": "http://dinisluckyclub.com/",
   "category": ["Nevada", "Sports Betting Kiosk"],
   "longitude": -119.163505,
   "latitude": 38.988512,
   "hours": "",
   "phone": "(775) 463-2868"
 },
 {
   "id": 31,
   "title": "Colorado Belle Hotel & Casino",
   "address": "2100 South Casino Drive \\nLaughlin, NV 89029 US",
   "state": "NV",
   "url": "http://coloradobelle.com/",
   "category": ["Nevada", "Sports Betting Kiosk"],
   "longitude": -114.573117,
   "latitude": 35.158416,
   "hours": "\\n\\n",
   "phone": "(702) 298-4000"
 },
 {
   "id": 32,
   "title": "Cactus Jack's Senator Club",
   "address": "411 North Curry Street \\nCarson City, NV 89703 US",
   "state": "NV",
   "url": "",
   "category": ["Nevada", "Sports Betting Kiosk"],
   "longitude": -119.767829,
   "latitude": 39.166336,
   "hours": "",
   "phone": ""
 },
 {
   "id": 33,
   "title": "Boomtown Hotel & Casino",
   "address": "2100 Garson Rd \\nVerdi, NV 89439 US",
   "state": "NV",
   "url": "http://www.boomtownreno.com/",
   "category": ["Full Service Sports Book", "Nevada", "Sports Betting Kiosk", "Virtual Racing"],
   "longitude": -119.9638876,
   "latitude": 39.514992,
   "hours": "Monday: 9:30 a.m. to 7:30 p.m.\\nTuesday: 9:30 a.m. to 7:30 p.m.\\nWednesday: 9:30 a.m. to 7:30 p.m.\\nThursday: 9:30 a.m. to 7:30 p.m.\\nFriday: 9:30 a.m. to 7:30 p.m.\\nSaturday: 8:30 a.m. to 8:00 p.m.\\nSunday: 8:30 a.m. to 6:00 p.m.",
   "phone": "(775) 345-6000"
 },
 {
   "id": 34,
   "title": "JJ's Sports & Spirits",
   "address": "950 Holman Way   \\nSparks, NV 89431 US",
   "state": "NV",
   "url": "",
   "category": ["Full Service Sports Book", "Nevada", "Sports Betting Kiosk"],
   "longitude": -119.752894,
   "latitude": 39.549438,
   "hours": "Monday: 8:00 a.m. to 7:30 p.m.\\nTuesday: 8:00 a.m. to 7:30 p.m.\\nWednesday: 8:00 a.m. to 7:30 p.m.\\nThursday: 8:00 a.m. to 7:30 p.m.\\nFriday: 8:00 a.m. to 7:30 p.m.\\nSaturday: 8:00 a.m. to 7:30 p.m.\\nSunday: 8:00 a.m. to 7:30 p.m.",
   "phone": ""
 },
 {
   "id": 35,
   "title": "MontBleu Resort Casino & Spa",
   "address": "55 Highway 50 \\nLake Tahoe, NV 89449 US",
   "state": "NV",
   "url": "http://www.montbleuresort.com/",
   "category": ["Full Service Sports Book", "Nevada", "Race Book", "Sports Betting Kiosk, \"Virtual Racing"],
   "longitude": -119.93826,
   "latitude": 38.961745,
   "hours": "Monday: 8:00 a.m. to 10:00 p.m.\\nTuesday: 8:00 a.m. to 10:00 p.m.\\nWednesday: 8:00 a.m. to 10:00 p.m.\\nThursday: 8:00 a.m. to 10:00 p.m.\\nFriday: 8:00 a.m. to 10:00 p.m.\\nSaturday: 8:00 a.m. to 10:00 p.m.\\nSunday: 8:00 a.m. to 10:00 p.m.\\n\\n\\n\\n",
   "phone": "(775) 588-3515"
 },
 {
   "id": 36,
   "title": "Whiskey Pete's Hotel & Casino",
   "address": "31900 Las Vegas Blvd. South \\nPrimm, NV 89019 US",
   "state": "NV",
   "url": "http://www.primmvalleyresorts.com/whiskey-petes",
   "category": ["Nevada", "Sports Betting Kiosk"],
   "longitude": -115.392081,
   "latitude": 35.609273,
   "hours": "Kiosk Only\\nMonday - Sunday: 7:00 a.m. - midnight\\n",
   "phone": "800.386.7867"
 },
 {
   "id": 37,
   "title": "Buffalo Bill's Resort & Casino",
   "address": "31900 Las Vegas Blvd. South \\nPrimm, NV 89019 US",
   "state": "NV",
   "url": "http://www.primmvalleyresorts.com/buffalo-bills",
   "category": ["Full Service Sports Book", "Nevada", "Sports Betting Kiosk"],
   "longitude": -115.385396,
   "latitude": 35.614401,
   "hours": "Monday: 10:00 a.m- 9:00 p.m\\nTuesday: KIOSK ONLY (7:00 a.m. - midnight)\\nWednesday: KIOSK ONLY (7:00 a.m. - midnight)\\nThursday: 9:00 a.m- 9:00 p.m\\nFriday: 9:00 a.m- 9:00 p.m\\nSaturday: 8:00 a.m. to 11:00 p.m.\\nSunday: 8:00 a.m. to 10:00 p.m.",
   "phone": "(702) 386-7867"
 },
 {
   "id": 38,
   "title": "Grand Sierra Resort & Casino",
   "address": "2500 E. Second Street \\nReno, NV 89595 US",
   "state": "NV",
   "url": "http://www.grandsierraresort.com/",
   "category": ["Full Service Sports Book", "Nevada", "Race Book", "Sports Betting Kiosk, \"Virtual Racing"],
   "longitude": -119.780337,
   "latitude": 39.526991,
   "hours": "Monday: 8:00 a.m. to 10:00 p.m.\\nTuesday: 8:00 a.m. to 10:00 p.m.\\nWednesday: 8:00 a.m. to 10:00 p.m.\\nThursday: 8:00 a.m. to 10:00 p.m.\\nFriday: 8:00 a.m. to 10:00 p.m.\\nSaturday: 7:00 a.m. to 10:00 p.m.\\nSunday: 7:00 a.m. to 9:00 p.m.",
   "phone": "(775) 789-2000"
 },
 {
   "id": 39,
   "title": "Oak Tavern Bar and Grill",
   "address": "5215 Vista Blvd \\nSparks, NV 89436 US",
   "state": "NV",
   "url": "",
   "category": ["Mobile Deposit Kiosk", "Nevada"],
   "longitude": -119.7156518,
   "latitude": 39.5865992,
   "hours": "",
   "phone": "775-354-2400"
 },
 {
   "id": 40,
   "title": "Legends Grill Sports and Spirits",
   "address": "6015 S. Virginia St \\nReno, NV 89502 US",
   "state": "NV",
   "url": "",
   "category": ["Mobile Deposit Kiosk", "Nevada"],
   "longitude": -119.7877457,
   "latitude": 39.4698646,
   "hours": "",
   "phone": "775-853-5550"
 },
 {
   "id": 41,
   "title": "Casino Royale",
   "address": "3411 S Las Vegas Blvd \\nLas Vegas, NV 89109 US",
   "state": "NV",
   "url": "http://www.casinoroyalehotel.com/",
   "category": ["Full Service Sports Book", "Nevada", "Sports Betting Kiosk"],
   "longitude": -115.1717638,
   "latitude": 36.1206998,
   "hours": "Monday: 10:00 a.m. to 7:30 p.m.\\nTuesday: 10:00 a.m. to 7:30 p.m.\\nWednesday: 10:00 a.m. to 7:30 p.m.\\nThursday: 10:00 a.m. to 7:30 p.m.\\nFriday: 10:00 a.m. to 9:00 p.m.\\nSaturday: 8:00 a.m. to 10:00 p.m.\\nSunday: 7:30 a.m. to 9:00 p.m.",
   "phone": "(800) 854-7666"
 },
 {
   "id": 42,
   "title": "Alamo Casino",
   "address": "1440 6th St \\nWells, NV 89823 US",
   "state": "NV",
   "url": "",
   "category": ["Mobile Deposit Kiosk", "Nevada", "Sports Betting Kiosk"],
   "longitude": -114.9557274,
   "latitude": 41.1008742,
   "hours": "",
   "phone": "775-752-3344"
 },
 {
   "id": 43,
   "title": "Emerald Island Casino",
   "address": "120 Market St. \\nHenderson, NV 89015 US",
   "state": "NV",
   "url": "http://www.emeraldislandcasino.com/",
   "category": ["Mobile Deposit Kiosk", "Nevada", "Sports Betting Kiosk"],
   "longitude": -114.984712,
   "latitude": 36.032622,
   "hours": "",
   "phone": "(702) 567-9160"
 },
 {
   "id": 44,
   "title": "PT's Pub - Tropicana & Hwy 95",
   "address": "4310 E. Tropicana \\nLas Vegas, NV 89121 US",
   "state": "NV",
   "url": "http://ptstaverns.com/sports-betting",
   "category": ["Nevada"],
   "longitude": -115.079447,
   "latitude": 36.100795,
   "hours": "",
   "phone": "702.434.-5741"
 },
 {
   "id": 45,
   "title": "Silver Sevens Hotel & Casino",
   "address": "4100 Paradise Road \\nLas Vegas, NV 89169 US",
   "state": "NV",
   "url": "http://silversevenscasino.com",
   "category": ["Full Service Sports Book", "Nevada", "Race Book", "Sports Betting Kiosk, \"Virtual Racing"],
   "longitude": -115.152279,
   "latitude": 36.1134879,
   "hours": "Monday: 8:00 a.m. to 10:00 p.m.\\nTuesday: 8:00 a.m. to 10:00 p.m.\\nWednesday: 8:00 a.m. to 10:00 p.m.\\nThursday: 8:00 a.m. to 10:00 p.m.\\nFriday: 8:00 a.m. to 11:00 p.m.\\nSaturday: 7:30 a.m. to 11:00 p.m.\\nSunday: 7:30 a.m. to 10:00 p.m.\\n\\n",
   "phone": "(702) 733-7000"
 },
 {
   "id": 46,
   "title": "Plaza Hotel & Casino",
   "address": "One Main Street \\nLas Vegas, NV 89101 US",
   "state": "NV",
   "url": "http://www.plazahotelcasino.com/",
   "category": ["Full Service Sports Book", "Nevada", "Race Book", "Sports Betting Kiosk, \"Virtual Racing"],
   "longitude": -115.146375,
   "latitude": 36.171677,
   "hours": "Monday: 8:00 a.m. to 9:00 p.m.\\nTuesday: 8:00 a.m. to 9:00 p.m.\\nWednesday: 8:00 a.m. to 9:00 p.m.\\nThursday: 8:00 a.m. to 9:00 p.m.\\nFriday: 8:00 a.m. to 10:00 p.m.\\nSaturday: 7:30 a.m. to 10:00 p.m.\\nSunday: 7:30 a.m. to 9:00 p.m.",
   "phone": "(800) 634-6575"
 },
 {
   "id": 47,
   "title": "Primm Valley Hotel & Casino",
   "address": "31900 Las Vegas Blvd. South \\nPrimm, NV 89019 US",
   "state": "NV",
   "url": "http://www.primmvalleyresorts.com/home",
   "category": ["Full Service Sports Book", "Nevada", "Race Book", "Sports Betting Kiosk, \"Virtual Racing"],
   "longitude": -115.386333,
   "latitude": 35.610445,
   "hours": "Monday: 8:00 a.m. to 10:00 p.m.\\nTuesday: 8:00 a.m. to 10:00 p.m.\\nWednesday: 8:00 a.m. to 10:00 p.m.\\nThursday: 8:00 a.m. to 10:00 p.m.\\nFriday: 8:00 a.m. to 11:00 p.m.\\nSaturday: 7:30 a.m. to 11:00 p.m.\\nSunday: 7:30 a.m. to 10:30 p.m.\\n\\nKiosk Hours: \\nMonday - Sunday: 7:00 a.m. - midnight",
   "phone": "(702) 386-7867"
 },
 {
   "id": 48,
   "title": "Jackpot Crossing - Fernley",
   "address": "206 Logan Ln \\nFernley, NV 89408 US",
   "state": "NV",
   "url": "http://www.nuggetcasinos.com/",
   "category": ["Nevada", "Sports Betting Kiosk"],
   "longitude": -119.2640531,
   "latitude": 39.6140714,
   "hours": "\\nMonday: KIOSK ONLY\\nTuesday: KIOSK ONLY\\nWednesday: KIOSK ONLY\\nThursday: KIOSK ONLY\\nFriday: KIOSK ONLY\\n Saturday: KIOSK ONLY\\n Sunday: KIOSK ONLY",
   "phone": ""
 },
 {
   "id": 49,
   "title": "Gold Ranch Casino - Dayton",
   "address": "755 Highway 50 East \\nDayton, NV 89403 US",
   "state": "NV",
   "url": "http://goldranchdayton.com/",
   "category": ["Full Service Sports Book", "Nevada", "Sports Betting Kiosk"],
   "longitude": -119.5895879,
   "latitude": 39.2435702,
   "hours": "Monday: 10:30 a.m. to 6:30 p.m.\\nTuesday: 10:30 a.m. to 6:30 p.m.\\nWednesday: 10:30 a.m. to 6:30 p.m.\\nThursday: 10:30 a.m. to 6:30 p.m.\\nFriday: 10:30 a.m. to 6:30 p.m.\\n Saturday: 9:30 a.m. to 7:30 p.m.\\n Sunday: 9:30 a.m. to 7:30 p.m.",
   "phone": ""
 },
 {
   "id": 50,
   "title": "C.O.D. Casino",
   "address": "1593 Esmeralda Ave \\nMinden, NV 89423 US",
   "state": "NV",
   "url": "",
   "category": ["Full Service Sports Book", "Nevada", "Sports Betting Kiosk"],
   "longitude": -119.762996,
   "latitude": 38.953418,
   "hours": "Monday: 9:00 a.m. to 7:00 p.m.\\nTuesday: 9:00 a.m. to 7:00 p.m.\\nWednesday: 9:00 a.m. to 7:00 p.m.\\nThursday: 9:00 a.m. to 7:00 p.m.\\nFriday: 9:00 a.m. to 7:00 p.m.\\nSaturday: 8:00 a.m. to 7:00 p.m.\\nSunday: 8:00 a.m. to 7:00 p.m.",
   "phone": "(775) 783-1494"
 },
 {
   "id": 51,
   "title": "Sean Patrick's - Flamingo & Cimarron",
   "address": "8255 W Flamingo Rd \\nLas Vegas, NV 89147 US",
   "state": "NV",
   "url": "http://pteglv.com/",
   "category": ["Mobile Deposit Kiosk", "Nevada"],
   "longitude": -115.271143,
   "latitude": 36.114279,
   "hours": "",
   "phone": "702.227.9793"
 },
 {
   "id": 52,
   "title": "Sean Patrick's - Ann & Ferrell",
   "address": "3290 W Ann Rd \\nNorth Las Vegas, NV 89031 US",
   "state": "NV",
   "url": "http://pteglv.com/",
   "category": ["Mobile Deposit Kiosk", "Nevada"],
   "longitude": -115.1841124,
   "latitude": 36.2618847,
   "hours": "",
   "phone": "702.395.0492"
 },
 {
   "id": 53,
   "title": "Sean Patrick's - Southern Highlands Pkwy",
   "address": "11930 Southern Highlands Pkwy \\nLas Vegas, NV 89141 US",
   "state": "NV",
   "url": "http://pteglv.com/",
   "category": ["Mobile Deposit Kiosk", "Nevada"],
   "longitude": -115.182206,
   "latitude": 35.973171,
   "hours": "",
   "phone": "702.837.0213"
 },
 {
   "id": 54,
   "title": "SLS Hotel & Casino",
   "address": "2535 Las Vegas Blvd. South \\nLas Vegas, NV 89109 US",
   "state": "NV",
   "url": "http://slslasvegas.com/",
   "category": ["Full Service Sports Book", "Nevada", "Sports Betting Kiosk", "Virtual Racing"],
   "longitude": -115.1578748,
   "latitude": 36.1427564,
   "hours": "Monday: 8:00 a.m. to 10:00 p.m.\\nTuesday: 8:00 a.m. to 10:00 p.m.\\nWednesday: 8:00 a.m. to 10:00 p.m.\\nThursday: 8:00 a.m. to 10:00 p.m.\\nFriday: 8:00 a.m. to 12:00 a.m.\\nSaturday: 7:00 a.m. to 12:00 a.m.\\nSunday: 7:00 a.m. to 10:00 p.m.",
   "phone": ""
 },
 {
   "id": 55,
   "title": "Siri's Casino",
   "address": "241 N Virginia St \\nReno, NV 89501 US",
   "state": "NV",
   "url": "www.siriscasino.com",
   "category": ["Nevada", "Sports Betting Kiosk"],
   "longitude": -119.813915,
   "latitude": 39.527696,
   "hours": "Kiosk Only Location",
   "phone": "(775) 323-1046"
 },
 {
   "id": 56,
   "title": "Downtown Grand",
   "address": "206 N. 3rd St. \\nLas Vegas, NV 89101 US",
   "state": "NV",
   "url": "http://www.downtowngrand.com",
   "category": ["Full Service Sports Book", "Nevada", "Sports Betting Kiosk", "Virtual Racing"],
   "longitude": -115.1415715,
   "latitude": 36.1715995,
   "hours": "Monday: 10:00 a.m. to 7:30 p.m.\\nTuesday: 10:00 a.m. to 7:30 p.m.\\nWednesday: 10:00 a.m. to 7:30 p.m.\\nThursday: 9:00 a.m. to 9:00 p.m.\\nFriday: 9:00 a.m. to 9:00 p.m.\\nSaturday: 7:30 a.m. to 9:00 p.m.\\nSunday: 7:30 a.m. to 7:00 p.m.",
   "phone": "(702) 719-5100"
 },
 {
   "id": 57,
   "title": "Jackpot Crossing Casino",
   "address": "1897 North Edmonds Dr. \\nCarson City, NV 89701 US",
   "state": "NV",
   "url": "",
   "category": ["Nevada", "Sports Betting Kiosk"],
   "longitude": -119.724188,
   "latitude": 39.178194,
   "hours": "",
   "phone": ""
 },
 {
   "id": 58,
   "title": "Gold Town Casino",
   "address": "771 South Frontage Road \\nPahrump, NV 89048 US",
   "state": "NV",
   "url": "http://www.gtowncasino.com/",
   "category": ["Nevada", "Sports Betting Kiosk"],
   "longitude": -115.9833812,
   "latitude": 36.209067,
   "hours": "",
   "phone": ""
 },
 {
   "id": 59,
   "title": "Saddle West Hotel & Casino",
   "address": "1220 S Hwy 160 \\nPahrump, NV 89048 US",
   "state": "NV",
   "url": "http://www.saddlewest.com",
   "category": ["Full Service Sports Book", "Nevada"],
   "longitude": -115.976675,
   "latitude": 36.201662,
   "hours": "Monday: 10:00 a.m. to 7:30 p.m.\\nTuesday: 10:00 a.m. to 7:30 p.m.\\nWednesday: 10:00 a.m. to 7:30 p.m.\\nThursday: 10:00 a.m. to 7:30 p.m.\\nFriday: 10:00 a.m. to 7:30 p.m.\\nSaturday: 8:30 a.m. to 7:30 p.m.\\nSunday: 9:30 a.m. to 6:45 p.m.",
   "phone": "(775) 727-1111"
 },
 {
   "id": 60,
   "title": "Sierra Gold - Reno",
   "address": "680 S. Meadows Parkway \\nReno, NV 89511 US",
   "state": "NV",
   "url": "http://sparkysreno.com",
   "category": ["Mobile Deposit Kiosk", "Nevada"],
   "longitude": -119.7585653,
   "latitude": 39.4386778,
   "hours": "",
   "phone": "775-850-1112"
 },
 {
   "id": 61,
   "title": "Players",
   "address": "2590 E. 2nd Street \\nReno, NV 89502 US",
   "state": "NV",
   "url": "",
   "category": ["Mobile Deposit Kiosk", "Nevada"],
   "longitude": -119.7784025,
   "latitude": 39.5275926,
   "hours": "",
   "phone": "(775) 322-8699"
 },
 {
   "id": 62,
   "title": "Bounty Hunter - Cactus",
   "address": "10591 S. Rainbow Blvd. \\nLas Vegas, NV 89179 US",
   "state": "NV",
   "url": "",
   "category": ["Mobile Deposit Kiosk", "Nevada"],
   "longitude": -115.2435327,
   "latitude": 36.0068469,
   "hours": "",
   "phone": ""
 },
 {
   "id": 63,
   "title": "Bounty Hunter - Windmill",
   "address": "415 E. Windmill Ln. \\nLas Vegas, NV 89123 US",
   "state": "NV",
   "url": "",
   "category": ["Mobile Deposit Kiosk", "Nevada"],
   "longitude": -115.1536564,
   "latitude": 36.0423057,
   "hours": "",
   "phone": "(702) 260-8930"
 },
 {
   "id": 64,
   "title": "Bounty Hunter - Westside",
   "address": "7141 S. Eastern Ave. \\nLas Vegas, NV 89119 US",
   "state": "NV",
   "url": "",
   "category": ["Mobile Deposit Kiosk", "Nevada"],
   "longitude": -115.119423,
   "latitude": 36.059631,
   "hours": "",
   "phone": "(702) 260-8930"
 },
 {
   "id": 65,
   "title": "Three Angry Wives Pub",
   "address": "8820 W. Charleston Blvd. \\nLas Vegas, NV 89117 US",
   "state": "NV",
   "url": "http://www.3angrywives.com",
   "category": ["Mobile Deposit Kiosk", "Nevada"],
   "longitude": -115.288092,
   "latitude": 36.1595281,
   "hours": "",
   "phone": "(702) 944-4411"
 },
 {
   "id": 66,
   "title": "Banc Club",
   "address": "360 Main Street \\nTonopah, NV 89049 US",
   "state": "NV",
   "url": "",
   "category": ["Nevada", "Sports Betting Kiosk"],
   "longitude": -117.2328689,
   "latitude": 38.0708567,
   "hours": "",
   "phone": "775.482.5409"
 },
 {
   "id": 67,
   "title": "Topaz Lodge",
   "address": "1979 Highway 395 S \\nGardnerville, NV 89410 US",
   "state": "NV",
   "url": "http://www.topazlodge.com/",
   "category": ["Nevada", "Sports Betting Kiosk"],
   "longitude": -119.547749,
   "latitude": 38.695384,
   "hours": "",
   "phone": "(775) 266-3338"
 },
 {
   "id": 68,
   "title": "Club Cal Neva",
   "address": "38 East Second Street \\nReno, NV 89501 US",
   "state": "NV",
   "url": "http://www.clubcalneva.com/",
   "category": ["Full Service Sports Book", "Nevada", "Sports Betting Kiosk", "Virtual Racing"],
   "longitude": -119.812257,
   "latitude": 39.5268159,
   "hours": "Monday: 7:00 a.m. to 10:00 p.m.\\nTuesday: 7:00 a.m. to 10:00 p.m.\\nWednesday: 7:00 a.m. to 10:00 p.m.\\nThursday: 7:00 a.m. to 10:00 p.m.\\nFriday: 7:00 a.m. to 10:00 p.m.\\nSaturday: 7:00 a.m. to 10:00 p.m.\\nSunday: 7:00 a.m. to 10:00 p.m.",
   "phone": "(775) 323-1046"
 },
 {
   "id": 69,
   "title": "Winnemucca Inn",
   "address": "741 W. Winnemucca Boulvard \\nWinnemucca, NV 89445 US",
   "state": "NV",
   "url": "http://winnemuccainn.com/",
   "category": ["Full Service Sports Book", "Nevada", "Sports Betting Kiosk"],
   "longitude": -117.741566,
   "latitude": 40.9681406,
   "hours": "Monday: 8:00 a.m. to 6:30 p.m.\\nTuesday: 8:00 a.m. to 6:00 p.m.\\nWednesday: 8:00 a.m. to 6:00 p.m.\\nThursday: 8:00 a.m. to 6:30 p.m.\\nFriday: 8:00 a.m. to 6:00 p.m.\\nSaturday: 8:00 a.m. to 6:00 p.m.\\nSunday: 8:00 a.m. to 6:30 p.m.",
   "phone": "(775) 623-2565"
 },
 {
   "id": 70,
   "title": "Wendover Nugget",
   "address": "101 Wendover Boulevard \\nWendover, NV 89883 US",
   "state": "NV",
   "url": "http://www.wendovernugget.com/",
   "category": ["Full Service Sports Book", "Nevada", "Sports Betting Kiosk"],
   "longitude": -114.0446433,
   "latitude": 40.7349296,
   "hours": "Monday: 8:00 a.m. to 10:00 p.m.\\nTuesday: 8:00 a.m. to 10:00 p.m.\\nWednesday: 8:00 a.m. to 10:00 p.m.\\nThursday: 8:00 a.m. to 10:00 p.m.\\nFriday: 7:00 a.m. to 11:00 p.m.\\nSaturday: 7:00 a.m. to 11:00 p.m.\\nSunday: 7:00 a.m. to 11:00 p.m.\\n *Mountain Time",
   "phone": "(800)848-7300"
 },
 {
   "id": 71,
   "title": "Tropicana Laughlin",
   "address": "2121 S. Casino Drive \\nLaughlin, NV 89029 US",
   "state": "NV",
   "url": "http://www.troplaughlin.com",
   "category": ["Full Service Sports Book", "Nevada", "Sports Betting Kiosk"],
   "longitude": -114.57742,
   "latitude": 35.1577709,
   "hours": "Monday: 10:30 a.m. to 7:30 p.m.\\nTuesday: 10:30 a.m. to 7:30 p.m.\\nWednesday: 10:30 a.m. to 7:30 p.m.\\nThursday: 10:30 a.m. to 7:30 p.m.\\nFriday: 10:30 a.m. to 7:30 p.m.\\nSaturday: 8:00 a.m. to 7:30 p.m.\\nSunday: 8:30 a.m. to 5:30 p.m.",
   "phone": "(702) 298-4200"
 },
 {
   "id": 72,
   "title": "Tahoe Biltmore Lodge",
   "address": "Highway 28 \\nTahoe, NV 89402 US",
   "state": "NV",
   "url": "http://www.tahoebiltmore.com/",
   "category": ["Full Service Sports Book", "Nevada", "Sports Betting Kiosk"],
   "longitude": -120.0009403,
   "latitude": 39.239474,
   "hours": "Monday: 7:30 a.m. to 5:30 p.m.\\nTuesday: KIOSK ONLY\\nWednesday: KIOSK ONLY\\nThursday: KIOSK ONLY\\nFriday: 7:30 a.m. to 5:30 p.m.\\nSaturday: 7:30 a.m. to 5:30 p.m.\\nSunday: 7:30 a.m. to 5:30 p.m.",
   "phone": "(775) 831-0660"
 },
 {
   "id": 73,
   "title": "Stagecoach",
   "address": "900 E. Highway 95N \\nBeatty, NV 89003 US",
   "state": "NV",
   "url": "",
   "category": ["Nevada"],
   "longitude": -116.752901,
   "latitude": 36.9146177,
   "hours": "",
   "phone": ""
 },
 {
   "id": 74,
   "title": "Skyline Restaurant & Casino",
   "address": "1741 North Boulder Highway \\nHenderson, NV 89015 US",
   "state": "NV",
   "url": "http://skylinehenderson.com/",
   "category": ["Full Service Sports Book", "Nevada", "Sports Betting Kiosk"],
   "longitude": -115.008526,
   "latitude": 36.062479,
   "hours": "Monday: 10:00 a.m. to 7:30 p.m.\\nTuesday: 10:00 a.m. to 7:30 p.m.\\nWednesday: 9:15 a.m. to 7:00 p.m.\\nThursday: 10:00 a.m. to 7:30 p.m.\\nFriday: 10:00 a.m. to 7:30 p.m.\\nSaturday: 7:15 a.m. to 8:00 p.m.\\nSunday: 7:15 a.m. to 6:30 p.m.",
   "phone": "(702) 565-9116"
 },
 {
   "id": 75,
   "title": "Silver Springs Nugget",
   "address": "1280 Highway 95-A \\nSilver Springs, NV 89429 US",
   "state": "NV",
   "url": "http://www.nuggetcasinos.com/silversprings/",
   "category": ["Nevada", "Sports Betting Kiosk"],
   "longitude": -119.22003,
   "latitude": 39.417454,
   "hours": "\\n",
   "phone": "(775)-577-4263"
 },
 {
   "id": 76,
   "title": "Silver Nugget",
   "address": "2140 Las Vegas Boulevard \\nNorth Las Vegas, NV 89030 US",
   "state": "NV",
   "url": "http://luckysilvergaming.com/",
   "category": ["Full Service Sports Book", "Nevada", "Sports Betting Kiosk", "Virtual Racing"],
   "longitude": -115.1255444,
   "latitude": 36.1984981,
   "hours": "Monday: 10:00 a.m. to 7:30 p.m.\\nTuesday: 10:00 a.m. to 7:30 p.m.\\nWednesday: 10:00 a.m. to 7:30 p.m.\\nThursday: 10:00 a.m. to 7:30 p.m.\\nFriday: 10:00 a.m. to 7:30 p.m.\\nSaturday: 8:30 a.m. to 6:30 p.m.\\nSunday: 8:30 a.m. to 6:00 p.m.",
   "phone": "(702) 399-3297"
 },
 {
   "id": 77,
   "title": "Siegel Slots and Suites",
   "address": "5011 East Craig Road \\nLas Vegas, NV 89115 US",
   "state": "NV",
   "url": "http://www.siegelslotsandsuites.com/",
   "category": ["Full Service Sports Book", "Nevada", "Sports Betting Kiosk"],
   "longitude": -115.063694,
   "latitude": 36.239713,
   "hours": "Monday: 10:00 a.m. to 8:00 p.m.\\nTuesday: 10:00 a.m. to 7:30 p.m.\\nWednesday: 10:00 a.m. to 7:30 p.m.\\nThursday: 10:00 a.m. to 8:00 p.m.\\nFriday: 10:00 a.m. to 8:00 p.m.\\nSaturday: 7:30 a.m. to 8:00 p.m.\\nSunday: 7:30 a.m. to 8:00 p.m.\\n\\n\\n\\n",
   "phone": "(702) 644-6300"
 },
 {
   "id": 78,
   "title": "Pony Express",
   "address": "1800 Poker Street \\nJackpot, NV 89825 US",
   "state": "NV",
   "url": "http://www.merchantcircle.com/business/Pony.Express.Casino.775-755-2900/map?novum=1",
   "category": ["Nevada", "Sports Betting Kiosk"],
   "longitude": -114.672623,
   "latitude": 41.989364,
   "hours": "\\n",
   "phone": "(775)-755-2900"
 },
 {
   "id": 79,
   "title": "Poker Palace",
   "address": "2757 Las Vegas Boulevard \\nNorth Las Vegas, NV 89030 US",
   "state": "NV",
   "url": "http://www.pokerpalace.net/",
   "category": ["Full Service Sports Book", "Nevada", "Sports Betting Kiosk"],
   "longitude": -115.107624,
   "latitude": 36.210003,
   "hours": "Monday: 8:00 a.m. to 7:00 p.m.\\nTuesday: 8:00 a.m. to 7:00 p.m.\\nWednesday: 8:00 a.m. to 7:00 p.m.\\nThursday: 8:00 a.m. to 7:00 p.m.\\nFriday: 8:00 a.m. to 7:00 p.m.\\nSaturday: 8:00 a.m. to 7:00 p.m.\\nSunday: 8:00 a.m. to 7:00 p.m.",
   "phone": "(702) 649-3799"
 },
 {
   "id": 80,
   "title": "Pioneer Crossing Fernley",
   "address": "1705 Highway 50A \\nFernley, NV 89408 US",
   "state": "NV",
   "url": "http://www.pioneercrossingcasino.com/fernley/entrypage_fernley.htm",
   "category": ["Full Service Sports Book", "Nevada", "Sports Betting Kiosk"],
   "longitude": -119.21194,
   "latitude": 39.599497,
   "hours": "Monday: 8:30 p.m. to 6:45 p.m.\\nTuesday: 8:30 p.m. to 6:30 p.m.\\nWednesday: 8:00 p.m. to 6:00 p.m.\\nThursday: 8:30 p.m. to 6:45 p.m.\\nFriday: 8:30 p.m. to 6:45 p.m.\\nSaturday: 7:45 a.m. to 6:30 p.m.\\nSunday: 8:00 a.m. to 6:00 p.m.",
   "phone": "(775) 575-4444"
 },
 {
   "id": 81,
   "title": "Pioneer Crossing Dayton",
   "address": "4 Pine Cone Road \\nDayton, NV 89403 US",
   "state": "NV",
   "url": "http://pioneercrossingcasino.com/dayton/dayton_about_us.htm",
   "category": ["Full Service Sports Book", "Nevada", "Sports Betting Kiosk"],
   "longitude": -119.582762,
   "latitude": 39.262444,
   "hours": "Monday: KIOSK ONLY\\nTuesday: KIOSK ONLY\\nWednesday: KIOSK ONLY\\nThursday: KIOSK ONLY\\nFriday: KIOSK ONLY\\nSaturday: KIOSK ONLY\\nSunday: KIOSK ONLY",
   "phone": "(775) 246-6600"
 },
 {
   "id": 82,
   "title": "Model T",
   "address": "1330 W Winnemucca Boulevard \\nWinnemucca, NV 89445 US",
   "state": "NV",
   "url": "http://www.northernstarcasinos.com/model-t-casino",
   "category": ["Nevada", "Sports Betting Kiosk"],
   "longitude": -117.7441552,
   "latitude": 40.9638115,
   "hours": "",
   "phone": "(775) 623-2588"
 },
 {
   "id": 83,
   "title": "Lucky Club",
   "address": "3227 Civic Center Drive \\nNorth Las Vegas, NV 89030 US",
   "state": "NV",
   "url": "https://luckyclublv.com/",
   "category": ["Full Service Sports Book", "Nevada", "Sports Betting Kiosk"],
   "longitude": -115.121689,
   "latitude": 36.218573,
   "hours": "Monday: 10:00 a.m. to 7:30 p.m.\\nTuesday: 10:00 a.m. to 7:30 p.m.\\nWednesday: 10:00 a.m. to 7:30 p.m.\\nThursday: 10:00 a.m. to 8:00 p.m.\\nFriday: 10:00 a.m. to 8:00 p.m.\\nSaturday: 7:30 a.m. to 8:00 p.m.\\nSunday: 7:30 a.m. to 7:00 p.m.",
   "phone": "(702) 399-3297"
 },
 {
   "id": 84,
   "title": "Longhorn Casino",
   "address": "5288 Boulder Highway \\nLas Vegas, NV 89122 US",
   "state": "NV",
   "url": "",
   "category": ["Full Service Sports Book", "Nevada", "Sports Betting Kiosk"],
   "longitude": -115.059076,
   "latitude": 36.107105,
   "hours": "Monday: 9:30 a.m. to 6:30 p.m.\\nTuesday: 9:30 a.m. to 6:30 p.m.\\nWednesday: 9:30 a.m. to 6:30 p.m.\\nThursday: 9:30 a.m. to 6:30 p.m.\\nFriday: 9:30 a.m. to 6:30 p.m.\\nSaturday: 9:30 a.m. to 6:30 p.m.\\nSunday: 8:30 a.m. to 5:30 p.m.",
   "phone": ""
 },
 {
   "id": 85,
   "title": "Hoover Dam Lodge",
   "address": "US Highway 93 \\nBoulder City, NV 89005 US",
   "state": "NV",
   "url": "http://haciendaonline.com/",
   "category": ["Nevada", "Sports Betting Kiosk"],
   "longitude": -114.838024,
   "latitude": 35.97784,
   "hours": "",
   "phone": "(702) 293-5000"
 },
 {
   "id": 86,
   "title": "Gold Strike Casino",
   "address": "1 Main Street \\nJean, NV 89019 US",
   "state": "NV",
   "url": "http://www.goldstrikejean.com/",
   "category": ["Nevada", "Sports Betting Kiosk"],
   "longitude": -115.3309696,
   "latitude": 35.7516901,
   "hours": "",
   "phone": "(702) 477-5000"
 },
 {
   "id": 87,
   "title": "Fernley Nugget",
   "address": "1190 E Main Street, #A \\nFernley, NV 89408 US",
   "state": "NV",
   "url": "",
   "category": ["Nevada", "Sports Betting Kiosk"],
   "longitude": -119.231115,
   "latitude": 39.604875,
   "hours": "",
   "phone": ""
 },
 {
   "id": 88,
   "title": "Fallon Nugget",
   "address": "70 Main Street \\nFallon, NV 89406 US",
   "state": "NV",
   "url": "http://www.nuggetcasinos.com/nugget/",
   "category": ["Full Service Sports Book", "Nevada", "Sports Betting Kiosk"],
   "longitude": -118.7766361,
   "latitude": 39.4759313,
   "hours": "Monday: 8:00 a.m. to 6:00 p.m.\\nTuesday: 8:00 a.m. to 6:00 p.m.\\nWednesday: 8:00 a.m. to 6:00 p.m.\\nThursday: 8:00 a.m. to 6:00 p.m.\\nFriday: 8:00 a.m. to 6:00 p.m.\\nSaturday: 7:30 a.m. to 7:00 p.m.\\nSunday: 7:30 a.m. to 6:00 p.m.",
   "phone": "(775) 423-3111"
 },
 {
   "id": 89,
   "title": "Comstock",
   "address": "3680 Goni Road \\nCarson City, NV 89706 US",
   "state": "NV",
   "url": "",
   "category": ["Full Service Sports Book", "Nevada", "Sports Betting Kiosk"],
   "longitude": -119.7473647,
   "latitude": 39.1919006,
   "hours": "Monday: 10:00 p.m. to 7:00 p.m.\\nTuesday: 10:00 p.m. to 7:00 p.m.\\nWednesday: 10:00 p.m. to 7:00 p.m.\\nThursday: 10:00 p.m. to 7:00 p.m.\\nFriday: 10:00 p.m. to 7:00 p.m.\\nSaturday: 8:30 a.m. to 7:30 p.m.\\nSunday: 8:30 a.m. to 7:30 p.m.",
   "phone": "(775) 882-0772"
 },
 {
   "id": 90,
   "title": "Club Fortune Casino",
   "address": "725 S Racetrack Dr. \\nHenderson, NV 89015 US",
   "state": "NV",
   "url": "http://clubfortunecasino.com/",
   "category": ["Full Service Sports Book", "Nevada", "Sports Betting Kiosk"],
   "longitude": -114.948199,
   "latitude": 36.017944,
   "hours": "Monday: 10:00 a.m. to 7:30 p.m.\\nTuesday: 10:00 a.m. to 7:30 p.m.\\nWednesday: 10:00 a.m. to 7:30 p.m.\\nThursday: 10:00 a.m. to 7:30 p.m.\\nFriday: 10:00 a.m. to 7:30 p.m.\\nSaturday: 8:00 a.m. to 8:00 p.m.\\nSunday: 8:30 a.m. to 5:30 p.m.",
   "phone": "(702) 566-5555"
 },
 {
   "id": 91,
   "title": "Bordertown Casino",
   "address": "19575 Highway 395 North \\nReno, NV 89506 US",
   "state": "NV",
   "url": "http://www.bordertowncasinorv.com/",
   "category": ["Full Service Sports Book", "Nevada", "Sports Betting Kiosk"],
   "longitude": -120.000017,
   "latitude": 39.669718,
   "hours": "Monday: 10:00 a.m. to 5:00 p.m.\\nTuesday: 10:00 a.m. to 5:00 p.m.\\nWednesday: 10:00 a.m. to 5:00 p.m.\\nThursday: 10:00 a.m. to 5:00 p.m.\\nFriday: 10:00 a.m. to 5:00 p.m.\\nSaturday: 10:00 a.m. to 5:00 p.m.\\nSunday: 10:00 a.m. to 5:00 p.m.",
   "phone": "(775) 972-1309"
 },
 {
   "id": 92,
   "title": "Bighorn Casino",
   "address": "3016 East Lake Mead Boulevard \\nNorth Las Vegas, NV 89030 US",
   "state": "NV",
   "url": "",
   "category": ["Nevada", "Sports Betting Kiosk"],
   "longitude": -115.1066115,
   "latitude": 36.1961818,
   "hours": "",
   "phone": ""
 },
 {
   "id": 93,
   "title": "Avi",
   "address": "1000 Aha Macav Parkway \\nLaughlin, NV 89028 US",
   "state": "NV",
   "url": "http://www.avicasino.com/",
   "category": ["Full Service Sports Book", "Nevada", "Race Book", "Sports Betting Kiosk"],
   "longitude": -114.6456298,
   "latitude": 35.0404001,
   "hours": "Monday: 8:00 a.m. to 10:00 p.m.\\nTuesday: 8:00 a.m. to 10:00 p.m.\\nWednesday: 8:00 a.m. to 10:00 p.m.\\nThursday: 8:00 a.m. to 10:00 p.m.\\nFriday: 8:00 a.m. to 10:00 p.m.\\nSaturday: 8:00 a.m. to 10:00 p.m.\\nSunday: 8:00 a.m. to 10:00 p.m.",
   "phone": "(702) 535-5555"
 },
 {
   "id": 94,
   "title": "Alamo Travel Center",
   "address": "1950 Greg Street \\nSparks, NV 89431 US",
   "state": "NV",
   "url": "http://www.thealamo.com/alamo-casino-sparks-petro/",
   "category": ["Full Service Sports Book", "Nevada", "Sports Betting Kiosk"],
   "longitude": -119.7096344,
   "latitude": 39.5236102,
   "hours": "Monday: 8:00 a.m. to 6:30 p.m.\\nTuesday: 8:00 a.m. to 6:30 p.m.\\nWednesday: 8:00 a.m. to 6:30 p.m.\\nThursday: 8:00 a.m. to 6:30 p.m.\\nFriday: 8:00 a.m. to 6:30 p.m.\\nSaturday: 7:30 a.m. to 6:30 p.m.\\nSunday: 8:00 a.m. to 6:45 p.m.",
   "phone": "(775) 355-8888"
 },
 {
   "id": 95,
   "title": "Binion's Gambling Hall & Casino",
   "address": "128 E. Fremont Street \\nLas Vegas, NV 89101 US",
   "state": "NV",
   "url": "http://www.binions.com/",
   "category": ["Full Service Sports Book", "Nevada", "Sports Betting Kiosk"],
   "longitude": -115.1415161,
   "latitude": 36.1695953,
   "hours": "Monday: 9:00 a.m. to 9:00 p.m.\\nTuesday: 9:00 a.m. to 9:00 p.m.\\nWednesday: 9:00 a.m. to 9:00 p.m.\\nThursday: 9:00 a.m. to 9:00 p.m.\\nFriday: 9:00 a.m. to 9:00 p.m.\\nSaturday: 7:30 a.m. to 10:00 p.m.\\nSunday: 7:30 a.m. to 9:00 p.m.",
   "phone": "(702) 382-1600"
 },
 {
   "id": 96,
   "title": "Four Queens Hotel and Casino",
   "address": "202 Fremont St. \\nLas Vegas, NV 89101 US",
   "state": "NV",
   "url": "http://www.fourqueens.com/",
   "category": ["Full Service Sports Book", "Nevada", "Sports Betting Kiosk"],
   "longitude": -115.141354,
   "latitude": 36.169523,
   "hours": "Monday: 10:00 a.m. to 7:30 p.m.\\nTuesday: 10:00 a.m. to 7:30 p.m.\\nWednesday: 10:00 a.m. to 7:30 p.m.\\nThursday: 10:00 a.m. to 7:30 p.m.\\nFriday: 10:00 a.m. to 7:30 p.m.\\nSaturday: 8:00 a.m. to 7:30 p.m.\\nSunday: 8:00 a.m. to 6:00 p.m.",
   "phone": "(702) 385-4011"
 },
 {
   "id": 97,
   "title": "Casino Valle Verde",
   "address": "697 North Valle Verde Dr. \\nHenderson, NV 89014 US",
   "state": "NV",
   "url": "",
   "category": ["Full Service Sports Book", "Nevada", "Sports Betting Kiosk"],
   "longitude": -115.069115,
   "latitude": 36.068425,
   "hours": "Monday: 10:00 a.m. to 7:30 p.m.\\nTuesday: 10:00 a.m. to 7:30 p.m.\\nWednesday: 10:00 a.m. to 7:30 p.m.\\nThursday: 10:00 a.m. to 7:30 p.m.\\nFriday: 10:00 a.m. to 7:30 p.m.\\nSaturday: 8:00 a.m. to 8:00 p.m.\\nSunday: 8:00 a.m. to 8:00 p.m.",
   "phone": "(702) 454-9200"
 },
 {
   "id": 98,
   "title": "Max Casino - Carson",
   "address": "900 S. Carson St. \\nCarson City, NV 89701 US",
   "state": "NV",
   "url": "",
   "category": ["Full Service Sports Book", "Nevada", "Sports Betting Kiosk"],
   "longitude": -119.7671194,
   "latitude": 39.1587881,
   "hours": "Monday: 9:45 a.m. to 7:15 p.m.\\nTuesday: 9:45 a.m. to 7:15 p.m.\\nWednesday: 9:45 a.m. to 7:15 p.m.\\nThursday: 9:00 a.m. to 7:30 p.m.\\nFriday: 9:00 a.m. to 7:30 p.m.\\nSaturday: 8:00 a.m. to 7:30 p.m.\\nSunday: 8:30 a.m. to 6:30 p.m.",
   "phone": "(775) 883-0900"
 },
 {
   "id": 99,
   "title": "Cactus Petes Resort Casino",
   "address": "1385 Highway 93 \\nJackpot, NV 89825 US",
   "state": "NV",
   "url": "http://www.ameristar.com/Cactus_Petes_and_Horseshu.aspx",
   "category": ["Full Service Sports Book", "Nevada", "Sports Betting Kiosk"],
   "longitude": -114.6723446,
   "latitude": 41.9843806,
   "hours": "Monday: 9:00 a.m. to 9:00 p.m.\\nTuesday: 9:00 a.m. to 9:00 p.m.\\nWednesday: 9:00 a.m. to 9:00 p.m.\\nThursday: 9:00 a.m. to 9:00 p.m.\\nFriday: 8:00 a.m. to 9:00 p.m.\\nSaturday: 8:00 a.m. to 9:00 p.m.\\nSunday: 8:00 a.m. to 8:00 p.m.\\n *Mountain Time",
   "phone": "(775) 755-2321"
 },
 {
   "id": 100,
   "title": "Grand Lodge Casino at Hyatt Regency Lake Tahoe",
   "address": "111 Country Club Drive \\nIncline Village, NV 89451 US",
   "state": "NV",
   "url": "http://www.grandlodgecasino.com/",
   "category": ["Full Service Sports Book", "Nevada"],
   "longitude": -119.943285,
   "latitude": 39.2399816,
   "hours": "Monday: 7:30 a.m. to 7:00 p.m.\\nTuesday: 9:00 a.m. to 7:30 p.m.\\nWednesday: 9:00 a.m. to 7:30 p.m.\\nThursday: 9:00 a.m. to 7:30 p.m.\\nFriday: 9:00 a.m. to 8:00 p.m.\\nSaturday: 7:30 a.m. to 9:00 p.m.\\nSunday: 7:30 a.m. to 7:00 p.m.",
   "phone": "775.832.1234"
 },
 {
   "id": 101,
   "title": "Tuscany Hotel & Casino",
   "address": "255 East Flamingo Rd. \\nLas Vegas, NV 89169 US",
   "state": "NV",
   "url": "http://www.tuscanylv.com/",
   "category": ["Full Service Sports Book", "Nevada", "Sports Betting Kiosk"],
   "longitude": -115.1599789,
   "latitude": 36.1136101,
   "hours": "Monday: 8:00 a.m. to 10:00 p.m.\\nTuesday: 8:00 a.m. to 10:00 p.m.\\nWednesday: 8:00 a.m. to 10:00 p.m.\\nThursday: 8:00 a.m. to 10:00 p.m.\\nFriday: 8:00 a.m. to 11:00 p.m.\\nSaturday: 7:30 a.m to 11:00 p.m.\\nSunday: 7:30 a.m. to 10:00 p.m.",
   "phone": "(702) 893-8933"
 },
 {
   "id": 102,
   "title": "Silverado Casino",
   "address": "1380 W. Newlands Drive \\nFernley, NV 89408 US",
   "state": "NV",
   "url": "http://www.playsilverado.com/Silverado/Silverado.aspx",
   "category": ["Full Service Sports Book", "Nevada", "Sports Betting Kiosk"],
   "longitude": -119.220124,
   "latitude": 39.610394,
   "hours": "Monday: KIOSK ONLY\\nTuesday: KIOSK ONLY\\nWednesday: KIOSK ONLY \\nThursday: KIOSK ONLY\\nFriday: KIOSK ONLY\\nSaturday: KIOSK ONLY\\nSunday: KIOSK ONLY",
   "phone": "(775) 575-2222"
 },
 {
   "id": 103,
   "title": "Crystal Bay Casino",
   "address": "14 State Highway 28 \\nCrystal Bay, NV 89402 US",
   "state": "NV",
   "url": "http://crystalbaycasino.com/",
   "category": ["Full Service Sports Book", "Nevada", "Sports Betting Kiosk"],
   "longitude": -120.004671,
   "latitude": 39.227682,
   "hours": "Monday: 7:30 a.m. to 5:30 p.m.\\nTuesday: KIOSK ONLY\\nWednesday: 7:30 a.m. to 5:30 p.m.\\nThursday: 7:30 a.m. to 5:30 p.m.\\nFriday: 7:30 a.m. to 5:30 p.m.\\nSaturday: 7:00 a.m. to 7:30 p.m.\\nSunday: 7:30 a.m. to 3:30 p.m.",
   "phone": "(775) 833-6333"
 },
 {
   "id": 104,
   "title": "Diamond's Casino",
   "address": "1000 East Sixth St \\nReno, NV 89512 US",
   "state": "NV",
   "url": "http://www.ramadareno.com/diamonds_casino.aspx",
   "category": ["Full Service Sports Book", "Nevada", "Sports Betting Kiosk"],
   "longitude": -119.8009017,
   "latitude": 39.5346391,
   "hours": "Monday: 10:00 a.m. to 7:00 p.m.\\nTuesday: 10:00 a.m. to 7:00 p.m.\\nWednesday: 10:00 a.m. to 7:00 p.m.\\nThursday: 10:00 a.m. to 7:00 p.m.\\nFriday: 10:00 a.m. to 7:00 p.m.\\nSaturday: 8:00 a.m. to 6:00 p.m.\\nSunday: 8:00 a.m. to 6:00 p.m.",
   "phone": "775.786.5151"
 },
 {
   "id": 105,
   "title": "Gold Ranch Casino - Verdi",
   "address": "350 Gold Ranch Rd \\nVerdi, NV 89439 US",
   "state": "NV",
   "url": "http://www.goldranchrvcasino.com",
   "category": ["Full Service Sports Book", "Nevada", "Sports Betting Kiosk"],
   "longitude": -120.000071,
   "latitude": 39.5066066,
   "hours": "Monday: 9:00 a.m. to 6:00 p.m.\\nTuesday: Closed\\nWednesday: 9:00 a.m. to 6:00 p.m.\\nThursday: 9:00 a.m. to 6:00 p.m.\\nFriday: 9:00 a.m. to 6:00 p.m.\\nSaturday: 8:00 a.m. to 6:00 p.m.\\nSunday: 8:00 a.m. to 6:00 p.m.",
   "phone": "(775) 345-6789"
 },
 {
   "id": 106,
   "title": "Hobey's Casino",
   "address": "5195 Sun Valley Blvd \\nSun Valley, NV 89433 US",
   "state": "NV",
   "url": "http://www.hobeyscasino.com/",
   "category": ["Full Service Sports Book", "Nevada", "Sports Betting Kiosk"],
   "longitude": -119.7803142,
   "latitude": 39.5817693,
   "hours": "Monday: 8:00 a.m. to 7:30 p.m.\\nTuesday: 8:00 a.m. to 7:30 p.m.\\nWednesday: 8:00 a.m. to 7:30 p.m.\\nThursday: 8:00 a.m. to 7:30 p.m.\\nFriday: 8:00 a.m. to 7:30 p.m.\\nSaturday: 8:00 a.m. to 7:30 p.m\\nSunday: 8:00 a.m. to 7:30 p.m",
   "phone": ""
 },
 {
   "id": 107,
   "title": "Sands Regency Casino Hotel",
   "address": "345 North Arlington Ave \\nReno, NV 89501 US",
   "state": "NV",
   "url": "http://www.sandsregency.com/",
   "category": ["Full Service Sports Book", "Nevada", "Sports Betting Kiosk"],
   "longitude": -119.819133,
   "latitude": 39.527952,
   "hours": "Monday: 8:00 a.m. to 8:00 p.m.\\nTuesday: 8:00 a.m. to 8:00 p.m.\\nWednesday: 8:00 a.m. to 8:00 p.m.\\nThursday: 8:00 a.m. to 8:00 p.m.\\nFriday: 7:00 a.m. to 8:00 p.m.\\nSaturday: 7:00 a.m. to 8:00 p.m.\\nSunday: 7:00 a.m. to 8:00 p.m.",
   "phone": "(775) 348-2200"
 },
 {
   "id": 108,
   "title": "Gold Dust West - Carson City",
   "address": "2171 US Highway 50 E \\nCarson City, NV 89701 US",
   "state": "NV",
   "url": "http://www.gdwcasino.com/Carson/index.php",
   "category": ["Full Service Sports Book", "Nevada", "Sports Betting Kiosk"],
   "longitude": -119.742505,
   "latitude": 39.172782,
   "hours": "Monday: 10:00 a.m. to 7:30 p.m.\\nTuesday: 10:00 a.m. to 7:30 p.m.\\nWednesday: 10:00 a.m. to 7:30 p.m.\\nThursday: 9:00 a.m. to 7:30 p.m.\\nFriday: 9:00 a.m. to 7:30 p.m.\\nSaturday: 8:30 a.m. to 7:30 p.m.\\nSunday: 8:30 a.m. to 6:30 p.m.",
   "phone": "(775) 885-9000"
 },
 {
   "id": 109,
   "title": "Gold Dust West - Reno",
   "address": "444 Vine Street   \\nReno, NV 89503 US",
   "state": "NV",
   "url": "http://www.gdwcasino.com/reno/index.php",
   "category": ["Full Service Sports Book", "Nevada", "Sports Betting Kiosk"],
   "longitude": -119.825013,
   "latitude": 39.5286649,
   "hours": "Monday: 7:30 a.m. to 8:00 p.m.\\nTuesday: 7:30 a.m. to 8:00 p.m.\\nWednesday: 7:30 a.m. to 8:30 p.m.\\nThursday: 7:30 a.m. to 8:30 p.m.\\nFriday: 7:00 a.m. to 8:30 p.m.\\nSaturday: 7:00 a.m. to 8:30 p.m.\\nSunday: 7:00 a.m. to 8:00 p.m.",
   "phone": "(775) 323-2211"
 },
 {
   "id": 110,
   "title": "Bonanza Casino",
   "address": "4720 North Virginia St. \\nReno, NV 89506 US",
   "state": "NV",
   "url": "http://www.bonanzacasino.com/",
   "category": ["Full Service Sports Book", "Nevada"],
   "longitude": -119.825802,
   "latitude": 39.571868,
   "hours": "Monday: 8:00 a.m. to 7:30 p.m.\\nTuesday: 8:00 a.m. to 7:30 p.m.\\nWednesday: 8:00 a.m. to 7:30 p.m.\\nThursday: 8:00 a.m. to 7:30 p.m.\\nFriday: 8:00 a.m. to 7:30 p.m.\\nSaturday: 8:00 a.m. to 7:30 p.m.\\nSunday: 8:00 a.m. to 7:30 p.m.",
   "phone": "(775) 323-2724"
 },
 {
   "id": 111,
   "title": "Rail City Casino",
   "address": "2121 Victorian Ave \\nSparks, NV 89431 US",
   "state": "NV",
   "url": "http://www.railcity.com/",
   "category": ["Full Service Sports Book", "Nevada"],
   "longitude": -119.7719721,
   "latitude": 39.5352082,
   "hours": "Monday: 8:00 a.m. to 7:30 p.m.\\nTuesday: 8:00 a.m. to 7:30 p.m.\\nWednesday: 8:00 a.m. to 7:30 p.m.\\nThursday: 8:00 a.m. to 7:30 p.m.\\nFriday: 8:00 a.m. to 7:30 p.m.\\nSaturday: 8:00 a.m. to 7:30 p.m.\\nSunday: 8:00 a.m. to 7:30 p.m.",
   "phone": "(775) 359-9440"
 },
 {
   "id": 112,
   "title": "Tamarack Junction Casino",
   "address": "13101 S. Virginia St \\nReno, NV 89511 US",
   "state": "NV",
   "url": "http://tamarackjunction.com/",
   "category": ["Full Service Sports Book", "Nevada", "Sports Betting Kiosk"],
   "longitude": -119.7536672,
   "latitude": 39.4144121,
   "hours": "Monday: 8:00 a.m. to 7:00 p.m.\\nTuesday: 8:00 a.m. to 7:00 p.m.\\nWednesday: 8:00 a.m. to 7:00 p.m.\\nThursday: 8:00 a.m. to 7:00 p.m.\\nFriday: 8:00 a.m. to 6:00 p.m.\\nSaturday: 7:30 a.m. to 7:00 p.m.\\nSunday: 7:30 a.m. to 5:00 p.m.",
   "phone": "(775) 852-3600"
 },
 {
   "id": 113,
   "title": "Sierra Sid's Casino",
   "address": "200 North McCarran Boulevard \\nSparks, NV 89431 US",
   "state": "NV",
   "url": "http://www.sierrasidscasino.com/",
   "category": ["Full Service Sports Book", "Nevada", "Sports Betting Kiosk"],
   "longitude": -119.7377367,
   "latitude": 39.5346801,
   "hours": "Monday: 8:00 a.m. to 7:00 p.m.\\nTuesday: 8:00 a.m. to 7:00 p.m.\\nWednesday: 8:00 a.m. to 7:00 p.m..\\nThursday: 8:00 a.m. to 7:00 p.m.\\nFriday: 7:45 a.m. to 6:45 p.m.\\nSaturday: 7:45 a.m. to 7:00 p.m.\\nSunday: 7:30 a.m. to 6:45 p.m.",
   "phone": "(775) 359-0550"
 },
 {
   "id": 114,
   "title": "Eureka Casino Resort",
   "address": "275 Mesa Blvd. \\nMesquite, NV 89027 US",
   "state": "NV",
   "url": "http://www.eurekamesquite.com/",
   "category": ["Full Service Sports Book", "Nevada", "Sports Betting Kiosk"],
   "longitude": -114.0632458,
   "latitude": 36.8165996,
   "hours": "Monday: 8:30 a.m. to 8:30 p.m.\\nTuesday: 8:30 a.m. to 8:30 p.m.\\nWednesday: 8:30 a.m. to 8:30 p.m.\\nThursday: 8:30 a.m. to 8:30 p.m.\\nFriday: 8:00 a.m. to 9:00 p.m.\\nSaturday: 8:00 a.m. to 9:00 p.m.\\nSunday: 8:00 a.m. to 8:30 p.m.",
   "phone": "(702) 346-4600"
 },
 {
   "id": 115,
   "title": "Carson Nugget Casino",
   "address": "507 N. Carson St. \\nCarson City, NV 89701 US",
   "state": "NV",
   "url": "http://www.ccnugget.com/",
   "category": ["Full Service Sports Book", "Nevada", "Sports Betting Kiosk"],
   "longitude": -119.766261,
   "latitude": 39.166715,
   "hours": "Monday: 10:00 a.m. to 7:30 p.m.\\nTuesday: 10:00 a.m. to 7:30 p.m.\\nWednesday: 10:00 a.m. to 7:30 p.m.\\nThursday: 10:00 a.m. to 7:30 p.m.\\nFriday: 10:00 a.m. to 8:00 p.m.\\nSaturday: 8:30 a.m. to 7:00 p.m.\\nSunday: 8:00 a.m. to 6:30 p.m.",
   "phone": "(775) 882-1626"
 },
 {
   "id": 116,
   "title": "Eldorado Hotel Casino",
   "address": "345 North Virginia Street \\nReno, NV 89501 US",
   "state": "NV",
   "url": "http://www.eldoradoreno.com/",
   "category": ["Full Service Sports Book", "Nevada"],
   "longitude": -119.8142748,
   "latitude": 39.5299378,
   "hours": "Monday: 8:00 a.m. to 8:00 p.m.\\nTuesday: 8:00 a.m. to 8:00 p.m.\\nWednesday: 8:00 a.m. to 8:00 p.m..\\nThursday: 8:00 a.m. to 8:00 p.m.\\nFriday: 8:00 a.m. to 8:00 p.m.\\nSaturday: 8:00 a.m. to 9:00 p.m.\\nSunday: 8:00 a.m. to 8:00 p.m.",
   "phone": "775.786.5700"
 },
 {
   "id": 117,
   "title": "Red Lion Hotel & Casino",
   "address": "2065 Idaho St. \\nElko, NV 89801 US",
   "state": "NV",
   "url": "http://www.redlionhotelelko.com/",
   "category": ["Full Service Sports Book", "Nevada", "Sports Betting Kiosk"],
   "longitude": -115.747365,
   "latitude": 40.84978,
   "hours": "Monday: 9:30 a.m. to 7:30 p.m.\\nTuesday: 9:30 a.m. to 7:30 p.m.\\nWednesday: 9:30 a.m. to 7:30 p.m.\\nThursday: 9:30 a.m. to 7:30 p.m.\\nFriday: 9:30 a.m. to 7:30 p.m.\\nSaturday: 9:30 a.m. to 7:30 p.m.\\nSunday: 9:30 a.m. to 7:30 p.m.",
   "phone": "(775) 738-2111"
 },
 {
   "id": 118,
   "title": "Lakeside Casino and RV Park",
   "address": "5870 South Homestead Road \\nPahrump, NV 89048 US",
   "state": "NV",
   "url": "",
   "category": ["Nevada", "Sports Betting Kiosk"],
   "longitude": -115.9577912,
   "latitude": 36.1333522,
   "hours": "",
   "phone": ""
 },
 {
   "id": 119,
   "title": "Laughlin River Lodge",
   "address": "2700 S. Casino Drive \\nLaughlin, NV 89029 US",
   "state": "NV",
   "url": "http://www.river-palms.com/",
   "category": ["Nevada", "Sports Betting Kiosk"],
   "longitude": -114.57527,
   "latitude": 35.149911,
   "hours": "\\nMonday: KIOSK ONLY\\n Tuesday: KIOSK ONLY\\n Wednesday: KIOSK ONLY\\n Thursday: KIOSK ONLY\\n Friday: KIOSK ONLY\\n Saturday: KIOSK ONLY\\n Sunday: KIOSK ONLY",
   "phone": "(8000 835-7903"
 },
 {
   "id": 120,
   "title": "The New Pioneer",
   "address": "2200 S. Casino Drive \\nLaughlin, NV 89029 US",
   "state": "NV",
   "url": "http://www.pioneerlaughlin.com/",
   "category": ["Full Service Sports Book", "Nevada"],
   "longitude": -114.573366,
   "latitude": 35.155288,
   "hours": "Monday: 10:30 a.m. to 7:30 p.m.\\nTuesday: 10:30 a.m. to 7:30 p.m.\\nWednesday: 10:30 a.m. to 7:30 p.m.\\nThursday: 10:30 a.m. to 7:30 p.m.\\nFriday: 10:30 a.m. to 7:30 p.m.\\nSaturday: 7:30 a.m. to 5:30 p.m.\\nSunday: 7:30 a.m. to 5:30 p.m.",
   "phone": "(800) 634-3469"
 },
 {
   "id": 121,
   "title": "Nugget Casino Resort",
   "address": "1100 Nugget Avenue \\nSparks, NV 89431 US",
   "state": "NV",
   "url": "http://www.nuggetcasinoresort.com/",
   "category": ["Full Service Sports Book", "Nevada", "Sports Betting Kiosk"],
   "longitude": -119.755825,
   "latitude": 39.533201,
   "hours": "Monday: 8:30 a.m. to 9:00 p.m.\\nTuesday: 8:30 a.m. to 9:00 p.m.\\nWednesday: 8:30 a.m. to 9:00 p.m.\\nThursday: 8:30 a.m. to 9:00 p.m.\\nFriday: 8:30 a.m. to 9:00 p.m.\\nSaturday: 8:00 a.m. to 9:00 p.m.\\nSunday: 8:00 a.m. to 8:00 p.m.",
   "phone": "800.648.1177"
 },
 {
   "id": 122,
   "title": "The D Las Vegas",
   "address": "301 Fremont Street \\nLas Vegas, NV  US",
   "state": "NV",
   "url": "http://www.thed.com/",
   "category": ["Full Service Sports Book", "Nevada", "Sports Betting Kiosk", "Virtual Racing"],
   "longitude": -115.1429031,
   "latitude": 36.169437,
   "hours": "Monday: 8:00 a.m. to 9:00 p.m.\\nTuesday: 8:00 a.m. to 9:00 p.m.\\nWednesday: 8:00 a.m. to 9:00 p.m.\\nThursday: 8:00 a.m. to 9:00 p.m.\\nFriday: 8:00 a.m. to 10:00 p.m.\\nSaturday: 7:30 a.m. to 10:00 p.m.\\nSunday: 7:30 a.m. to 9:00 p.m.",
   "phone": "(702) 388-2400"
 },
 {
   "id": 123,
   "title": "Scoreboard Sports Bar",
   "address": "259 Spring Valley Parkway \\nSpring Creek, NV 89815 US",
   "state": "NV",
   "url": "http://www.northernstarcasinos.com/scoreboard-casino/",
   "category": ["Nevada", "Sports Betting Kiosk"],
   "longitude": -115.676618,
   "latitude": 40.786283,
   "hours": "",
   "phone": ""
 },
 {
   "id": 124,
   "title": "Casino Fandango",
   "address": "3800 S. Carson Street \\nCarson City, NV 89701 US",
   "state": "NV",
   "url": "http://www.casinofandango.com/",
   "category": ["Full Service Sports Book", "Nevada", "Sports Betting Kiosk"],
   "longitude": -119.7715318,
   "latitude": 39.1312518,
   "hours": "Monday: 9:00 a.m. to 8:00 p.m.\\nTuesday: 9:00 a.m. to 8:00 p.m.\\nWednesday: 9:00 a.m. to 8:00 p.m.\\nThursday: 9:00 a.m. to 8:00 p.m.\\nFriday: 9:00 a.m. to 8:00 p.m.\\nSaturday: 8:00 a.m. to 8:00 p.m.\\nSunday: 8:00 a.m. to 8:00 p.m.",
   "phone": "(775) 885-7000"
 },
 {
   "id": 125,
   "title": "Gold Dust West - Elko",
   "address": "1660 Mountain City Highway \\nElko, NV 89801 US",
   "state": "NV",
   "url": "http://www.gdwcasino.com/elko/index.php",
   "category": ["Full Service Sports Book", "Nevada", "Sports Betting Kiosk"],
   "longitude": -115.783958,
   "latitude": 40.832557,
   "hours": "Monday: 9:30 a.m. to 7:30 p.m.\\nTuesday: 9:30 a.m. to 7:30 p.m\\nWednesday: 9:30 a.m. to 7:30 p.m\\nThursday: 9:30 a.m. to 7:30 p.m\\nFriday: 9:30 a.m. to 7:30 p.m\\nSaturday: 7:00 a.m. to 8:00 p.m.\\nSunday: 8:00 a.m. to 6:00 p.m.",
   "phone": "(775) 777-7500"
 },
 {
   "id": 126,
   "title": "Ellis Island Casino",
   "address": "4178 Koval Lane \\nLas Vegas, NV 89109 US",
   "state": "NV",
   "url": "http://www.ellisislandcasino.com/ellis/ellis_landing.html",
   "category": ["Full Service Sports Book", "Nevada", "Sports Betting Kiosk"],
   "longitude": -115.1637894,
   "latitude": 36.1128048,
   "hours": "Monday: 8:00 a.m. to 9:00 p.m.\\nTuesday: 8:00 a.m. to 9:00 p.m.\\nWednesday: 8:00 a.m. to 9:00 p.m.\\nThursday: 8:00 a.m. to 9:00 p.m.\\nFriday: 8:00 a.m. to 10:00 p.m.\\nSaturday: 7:30 a.m. to 10:00 p.m.\\nSunday: 7:30 a.m. to 9:00 p.m.",
   "phone": "(702) 733-8901"
 },
 {
   "id": 127,
   "title": "PT's Gold - W Sunset & Whitney Ranch Dr",
   "address": "1540 W Sunset Rd #140\\nHenderson, NV 89014",
   "state": "NV",
   "url": "http://pteglv.com",
   "category": ["Mobile Deposit Kiosk", "Nevada"],
   "longitude": -115.0519679,
   "latitude": 36.0637862,
   "hours": "",
   "phone": "725-333-7187"
 },
 {
   "id": 128,
   "title": "Pioneer Crossing Casino - Yerington",
   "address": "11 N Main St\\nYerington, NV 89447",
   "state": "NV",
   "url": "http://pioneercrossingcasino.com/yerington/",
   "category": ["Nevada", "Sports Betting Kiosk"],
   "longitude": -119.1636227,
   "latitude": 38.9874337,
   "hours": "Kiosk Only Location",
   "phone": "775-463-2481"
 },
 {
   "id": 129,
   "title": "Pioneer Hotel & Gambling Hall",
   "address": "2200 S. Casino Drive \\nLaughlin, NV 89029 US",
   "state": "NV",
   "url": "http://www.pioneerlaughlin.com/",
   "category": ["Full Service Sports Book", "Nevada"],
   "longitude": -114.573366,
   "latitude": 35.155288,
   "hours": "Monday: 10:30 a.m. to 7:30 p.m.\\nTuesday: 10:30 a.m. to 7:30 p.m.\\nWednesday: 10:30 a.m. to 7:30 p.m.\\nThursday: 10:30 a.m. to 7:30 p.m.\\nFriday: 10:30 a.m. to 7:30 p.m.\\nSaturday: 8:00 a.m. to 7:30 p.m.\\nSunday: 8:30 a.m. to 5:30 p.m.",
   "phone": "(800) 634-3469"
 },
 {
   "id": 130,
   "title": "PT's Ranch - S Durango & W Sunset",
   "address": "6450 S Durango Dr\\nLas Vegas, NV 89113",
   "state": "NV",
   "url": "http://www.pteglv.com/",
   "category": ["Mobile Deposit Kiosk", "Nevada"],
   "longitude": -115.278761,
   "latitude": 36.0713786,
   "hours": "",
   "phone": "725.333.7153"
 },
 {
   "id": 131,
   "title": "Circus Circus Reno Hotel & Casino",
   "address": "Circus Circus Reno Hotel & Casino\\n500 North Sierra Street\\nReno\\n89503\\nUnited States",
   "state": "NV",
   "url": "http://www.circusreno.com/",
   "category": ["Full Service Sports Book", "Nevada", "Race Book", "Virtual Racing"],
   "longitude": -119.8152446,
   "latitude": 39.5320713,
   "hours": "Monday: 8:00 a.m. to 9:00 p.m.\\nTuesday: 8:00 a.m. to 9:00 p.m.\\nWednesday: 8:00 a.m. to 9:00 p.m.\\nThursday: 8:00 a.m. to 9:00 p.m.\\nFriday: 8:00 a.m. to 9:00 p.m.\\nSaturday: 8:00 a.m. to 9:00 p.m.\\nSunday: 8:00 a.m. to 9:00 p.m.",
   "phone": "775-329-0711"
 },
 {
   "id": 132,
   "title": "Silver Legacy",
   "address": "407 N Virginia St\\n407 North Virginia Street\\nReno\\n89501\\nUnited States",
   "state": "NV",
   "url": "http://www.silverlegacyreno.com/contact-us",
   "category": ["Full Service Sports Book", "Nevada", "Race Book", "Sports Betting Kiosk, \"Virtual Racing"],
   "longitude": -119.8147424,
   "latitude": 39.5304383,
   "hours": "Monday: 8:00 a.m. to 9:00 p.m.\\nTuesday: 8:00 a.m. to 9:00 p.m.\\nWednesday: 8:00 a.m. to 9:00 p.m.\\nThursday: 8:00 a.m. to 9:00 p.m..\\nFriday: 8:00 a.m. to 10:00 p.m.\\nSaturday: 8:00 a.m. to 10:00 p.m.\\nSunday: 8:00 a.m. to 8:00 p.m.",
   "phone": ""
 },
 {
   "id": 133,
   "title": "Sierra Gold - W. Flamingo Rd & 215",
   "address": "9580 W. Flamingo Rd\\nLas Vegas, NV 89147",
   "state": "NV",
   "url": "http://www.pteglv.com/",
   "category": ["Mobile Deposit Kiosk", "Nevada"],
   "longitude": -115.301212,
   "latitude": 36.1156577,
   "hours": "",
   "phone": ""
 },
 {
   "id": 134,
   "title": "Roadhouse Casino",
   "address": "4400 Rim Rock Rd\\n4400 Rim Rock Road\\nWinnemucca\\n89445\\nUnited States",
   "state": "NV",
   "url": "",
   "category": ["Nevada", "Sports Betting Kiosk"],
   "longitude": -117.6992249,
   "latitude": 40.982650852662346,
   "hours": "",
   "phone": ""
 },
 {
   "id": 135,
   "title": "PT's Gold-7200 W. Lake Mead",
   "address": "7200 W Lake Mead Blvd\\n7200 West Lake Mead Boulevard\\nLas Vegas\\n89128\\nUnited States",
   "state": "NV",
   "url": "",
   "category": ["Mobile Deposit Kiosk", "Nevada"],
   "longitude": -115.2486868,
   "latitude": 36.1965066,
   "hours": "",
   "phone": ""
 },
 {
   "id": 136,
   "title": "Horseshoe Council Bluffs",
   "address": "Horseshoe\\n2701 23rd Avenue\\nCouncil Bluffs\\n51501\\nUnited States",
   "state": "IA",
   "url": "https://www.caesars.com/horseshoe-council-bluffs",
   "category": ["Iowa", "Race Book"],
   "longitude": -95.8882069,
   "latitude": 41.23673119999999,
   "hours": "Monday-Friday: Open at 11:00 am. Close: after the last race\\nSaturday- Sunday: Open at 10:30 am. Close: after the last race",
   "phone": ""
 },
 {
   "id": 137,
   "title": "Sneakers Bar & Grill #1",
   "address": "13870 Stead Boulevard\\nReno\\n89506\\nUnited States",
   "state": "NV",
   "url": "http://sneakers-barandgrill.com/",
   "category": ["Mobile Deposit Kiosk", "Nevada"],
   "longitude": -119.8809231,
   "latitude": 39.64164259999999,
   "hours": "",
   "phone": "775-972-5529"
 },
 {
   "id": 138,
   "title": "Sneakers Bar & Grill #2",
   "address": "3923 South McCarran Boulevard\\nReno\\n89502\\nUnited States",
   "state": "NV",
   "url": "http://sneakers-barandgrill.com/",
   "category": ["Mobile Deposit Kiosk", "Nevada"],
   "longitude": -119.7638445,
   "latitude": 39.4780075,
   "hours": "",
   "phone": "775-829-8770"
 },
 {
   "id": 139,
   "title": "Sneakers Bar & Grill #4",
   "address": "1100 East Plumb Lane\\nReno\\n89502\\nUnited States",
   "state": "NV",
   "url": "http://sneakers-barandgrill.com/",
   "category": ["Mobile Deposit Kiosk", "Nevada"],
   "longitude": -119.785081,
   "latitude": 39.5054767,
   "hours": "",
   "phone": ""
 },
 {
   "id": 140,
   "title": "PT's Gold El Dorado",
   "address": "7355 South Buffalo Drive\\nLas Vegas\\n89113\\nUnited States",
   "state": "NV",
   "url": "https://www.pteglv.com/locations/pts-gold/buffalo-warm-springs/",
   "category": ["Mobile Deposit Kiosk", "Nevada"],
   "longitude": -115.261747,
   "latitude": 36.054609,
   "hours": "",
   "phone": "702.840.3881"
 },
 {
   "id": 141,
   "title": "Don Laughlin's Riverside Resort Hotel & Casino",
   "address": "Don Laughlin's Riverside Resort Hotel & Casino\\n1650 South Casino Drive\\nLaughlin\\n89029\\nUnited States",
   "state": "NV",
   "url": "http://www.riversideresort.com/",
   "category": ["Full Service Sports Book", "Nevada", "Race Book", "Sports Betting Kiosk"],
   "longitude": -114.5717361,
   "latitude": 35.1673428,
   "hours": "Monday- Sunday: 8:00 AM- 10:00 PM",
   "phone": ""
 },
 {
   "id": 142,
   "title": "PT's Gold Silverado Ranch & Decatur",
   "address": "4880 East Silverado Ranch Boulevard\\nLas Vegas, NV 89139\\nUnited States",
   "state": "NV",
   "url": "https://www.pteglv.com/locations/pts-gold/silverado-ranch-decatur/",
   "category": ["Mobile Deposit Kiosk", "Nevada"],
   "longitude": -115.1219354,
   "latitude": 36.0133214,
   "hours": "",
   "phone": "702.840.3883"
 },
 {
   "id": 143,
   "title": "PT's Gold Valley View, South of Sunset",
   "address": "3835 West Martin Avenue\\nLas Vegas, NV 89118\\nUnited States",
   "state": "NV",
   "url": "https://www.pteglv.com/locations/pts-gold/valley-view-sunset/",
   "category": ["Mobile Deposit Kiosk", "Nevada"],
   "longitude": -115.1911117,
   "latitude": 36.0677202,
   "hours": "",
   "phone": "702.840.3882"
 },
 {
   "id": 144,
   "title": "PT's Gold- 7550 Oso Blanca Rd",
   "address": "7550 Oso Blanca Rd\\n7550 Oso Blanca Road\\nLas Vegas\\n89149\\nUnited States",
   "state": "NV",
   "url": "",
   "category": ["Mobile Deposit Kiosk", "Nevada"],
   "longitude": -115.2893146,
   "latitude": 36.29539659999999,
   "hours": "",
   "phone": ""
 },
 {
   "id": 145,
   "title": "8275 S Fort Apache Rd",
   "address": "8275 S Fort Apache Rd\\n8275 South Fort Apache Road\\nLas Vegas\\n89148\\nUnited States",
   "state": "NV",
   "url": "",
   "category": ["Mobile Deposit Kiosk", "Nevada"],
   "longitude": -115.297761,
   "latitude": 36.03758149999999,
   "hours": "",
   "phone": ""
 },
 {
   "id": 146,
   "title": "Klondike Sunset Casino",
   "address": "444 W Sunset Rd\\n444 West Sunset Road\\nHenderson\\n89011\\nUnited States",
   "state": "NV",
   "url": "http://www.klondikesunset.com/",
   "category": ["Full Service Sports Book", "Nevada", "Sports Betting Kiosk"],
   "longitude": -115.015209,
   "latitude": 36.0644294,
   "hours": "Monday-Friday: 11:00 AM- 7:00 PM\\nSaturday-Sunday: 8:30 AM- 5:30 PM",
   "phone": ""
 },
 {
   "id": 147,
   "title": "Great American Pub",
   "address": "4145 S Grand Canyon Dr\\n4145 South Grand Canyon Drive\\nLas Vegas\\n89147\\nUnited States",
   "state": "NV",
   "url": "",
   "category": ["Mobile Deposit Kiosk", "Nevada"],
   "longitude": -115.30742,
   "latitude": 36.11463799999999,
   "hours": "",
   "phone": ""
 },
 {
   "id": 148,
   "title": "Great American Pub #2",
   "address": "9310 S Eastern Ave\\n9310 South Eastern Avenue\\nLas Vegas\\n89123\\nUnited States",
   "state": "NV",
   "url": "",
   "category": ["Mobile Deposit Kiosk", "Nevada"],
   "longitude": -115.1169315,
   "latitude": 36.0191006,
   "hours": "",
   "phone": ""
 },
 {
   "id": 149,
   "title": "Nassau, Baha Mar",
   "address": "One, Baha Mar Boulevard\\nNassau, The Bahamas",
   "state": "Bahamas",
   "url": "http://www.bahamar.com",
   "category": ["Bahamas", "Full Service Sports Book"],
   "longitude": -77.3968784,
   "latitude": 25.0702748,
   "hours": "Monday- Sunday: 10:00am- 2:00am",
   "phone": ""
 },
 {
   "id": 150,
   "title": "GVHR Store #571",
   "address": "690 S Green Valley Pkwy\\n690 South Green Valley Parkway\\nHenderson\\n89052\\nUnited States",
   "state": "NV",
   "url": "",
   "category": ["Mobile Deposit Kiosk", "Nevada"],
   "longitude": -115.082554,
   "latitude": 36.0036889,
   "hours": "",
   "phone": ""
 },
 {
   "id": 151,
   "title": "PT's Maule #576",
   "address": "9722 W Maule Ave\\n9722 West Maule Avenue\\nLas Vegas\\n89148\\nUnited States",
   "state": "NV",
   "url": "",
   "category": ["Mobile Deposit Kiosk", "Nevada"],
   "longitude": -115.3051496,
   "latitude": 36.06420130000001,
   "hours": "",
   "phone": ""
 },
 {
   "id": 152,
   "title": "Monmouth Park Sports Book by William Hill",
   "address": "175 Oceanport Ave\\nOceanport, New Jersey 07757\\nUnited States",
   "state": "NJ",
   "url": "",
   "category": ["Full Service Sports Book", "New Jersey"],
   "longitude": -74.0169131,
   "latitude": 40.3087529,
   "hours": "Monday-Thursday: 10a.m. to 1a.m.\\nFriday: 10a.m. to 2a.m.\\nSaturday: 8a.m. to 2a.m.\\nSunday: 8a.m. to 1a.m.",
   "phone": ""
 },
 {
   "id": 153,
   "title": "Ocean Casino Resort",
   "address": "500 Boardwalk\\nAtlantic City, New Jersey, 08401\\nUnited States",
   "state": "NJ",
   "url": "https://www.theoceanac.com/",
   "category": ["Full Service Sports Book", "New Jersey"],
   "longitude": -74.4142961,
   "latitude": 39.3628286,
   "hours": "Sunday – Thursday: 9a.m. – midnight \\nFriday – Saturday: 9a.m. – 2a.m.",
   "phone": ""
 },
 {
   "id": 154,
   "title": "PT's Gold",
   "address": "8985 Blue Diamond Road\\nLas Vegas\\n89178\\nUnited States",
   "state": "NV",
   "url": "",
   "category": ["Mobile Deposit Kiosk", "Nevada"],
   "longitude": -115.2841873,
   "latitude": 36.0202585,
   "hours": "",
   "phone": ""
 },
 {
   "id": 155,
   "title": "Palace Casino Resort",
   "address": "158 Howard Ave, Biloxi, MS 39530, USA",
   "state": "MS",
   "url": "https://www.palacecasinoresort.com/",
   "category": ["Full Service Sports Book", "Mississippi"],
   "longitude": -88.8606183,
   "latitude": 30.3964432,
   "hours": "See website",
   "phone": "(228) 432-8888"
 },
 {
   "id": 156,
   "title": "Silver Slipper Casino Hotel",
   "address": "5000 S Beach Blvd\\n5000 South Beach Boulevard\\nBay Saint Louis\\n39520\\nUnited States",
   "state": "MS",
   "url": "http://silverslipper-ms.com/",
   "category": ["Full Service Sports Book", "Mississippi"],
   "longitude": -89.4255979,
   "latitude": 30.2390217,
   "hours": "Monday 11am-10pm\\nTuesday 11am-7pm\\nWednesday 11am-7pm\\nThursday 11am-10pm\\nFriday 11am-10pm\\nSaturday 9am-10pm\\nSunday 9am-10pm\\n",
   "phone": "(228) 469-2777"
 },
 {
   "id": 157,
   "title": "Hard Rock Hotel And Casino Biloxi",
   "address": "777 Beach Blvd, Biloxi, MS 39530, USA\\nUnited States",
   "state": "MS",
   "url": "https://www.hrhcbiloxi.com/",
   "category": ["Full Service Sports Book", "Mississippi"],
   "longitude": -88.8876295,
   "latitude": 30.39197619999999,
   "hours": "Mon-Thu 11am-midnight\\nFriday 11am-1am\\nSaturday 9am-1am\\nSunday 9am-midnight",
   "phone": "(228) 374-7625"
 },
 {
   "id": 158,
   "title": "Hollywood Casino Gulf Coast",
   "address": "711 Hollywood Blvd\\n711 Hollywood Boulevard\\nBay Saint Louis\\n39520\\nUnited States",
   "state": "MS",
   "url": "https://www.hollywoodgulfcoast.com/",
   "category": ["Full Service Sports Book", "Mississippi"],
   "longitude": -89.354853,
   "latitude": 30.3345803,
   "hours": "Monday – Thursday 10am-11pm\\nFriday – Sunday 9am-12am\\n",
   "phone": "(866) 758-2591"
 },
 {
   "id": 159,
   "title": "Boomtown Casino Biloxi",
   "address": "Boomtown Casino Biloxi\\n676 Bayview Avenue\\nBiloxi\\n39530\\nUnited States",
   "state": "MS",
   "url": "https://www.boomtownbiloxi.com/",
   "category": ["Full Service Sports Book", "Mississippi"],
   "longitude": -88.8851559,
   "latitude": 30.4127434,
   "hours": "Monday – Thursday 10am-11pm\\nFriday – Sunday 9am-12am\\n",
   "phone": "(228) 435-7000"
 },
 {
   "id": 160,
   "title": "1St Jackpot Casino Tunica",
   "address": "1450 Jackpot Blvd, Robinsonville, MS 38664 USA\\n",
   "state": "MS",
   "url": "https://www.1stjackpot.com/",
   "category": ["Full Service Sports Book", "Mississippi"],
   "longitude": -90.3268728,
   "latitude": 34.8435037,
   "hours": "Monday-Friday: 11:00 AM-11:00PM\\nSaturday-Sunday: 9:00AM-11:00PM\\n",
   "phone": "(866) 422-5597"
 },
 {
   "id": 161,
   "title": "Hollywood Casino & Hotel Tunica",
   "address": "1150 Casino Strip Resort Blvd\\n1150 Casino Strip Resort Boulevard\\nRobinsonville\\n38664\\nUnited States",
   "state": "MS",
   "url": "https://www.hollywoodcasinotunica.com/",
   "category": ["Full Service Sports Book", "Mississippi"],
   "longitude": -90.4156108,
   "latitude": 34.8125492,
   "hours": "Monday-Friday: 11:00 AM-11:00PM\\nSaturday-Sunday: 9:00AM-11:00PM\\n",
   "phone": "(800) 871-0711"
 },
 {
   "id": 162,
   "title": "Resorts Casino Tunica",
   "address": "1100 Casino Strip Resort Blvd\\n1100 Casino Strip Resort Boulevard\\nRobinsonville\\n38664\\nUnited States",
   "state": "MS",
   "url": "https://www.resortstunica.com/",
   "category": ["Full Service Sports Book", "Mississippi"],
   "longitude": -90.4176728,
   "latitude": 34.8153028,
   "hours": "",
   "phone": "(866) 706-7070"
 },
 {
   "id": 163,
   "title": "Treasure Bay Casino And Hotel",
   "address": "1980 Beach Blvd\\n1980 Beach Boulevard\\nBiloxi\\n39531\\nUnited States",
   "state": "MS",
   "url": "https://treasurebay.com/",
   "category": ["Full Service Sports Book", "Mississippi"],
   "longitude": -88.9552263,
   "latitude": 30.393522,
   "hours": "Monday through Friday 10am to midnight\\nSaturday & Sunday 8am to midnight\\n",
   "phone": "(228) 385-6000"
 },
 {
   "id": 164,
   "title": "Island View Casino Resort",
   "address": "3300 W Beach Blvd\\n3300 West Beach Boulevard\\nGulfport\\n39501\\nUnited States",
   "state": "MS",
   "url": "http://islandviewcasino.com/",
   "category": ["Full Service Sports Book", "Mississippi"],
   "longitude": -89.1028349,
   "latitude": 30.363366,
   "hours": "Monday 10am-11pm\\nTuesday and Wednesday 11am-7pm\\nThursday and Friday 10am-11pm\\nSaturday and Sunday 9am-11pm",
   "phone": "(228) 314-2100"
 },
 {
   "id": 165,
   "title": "Ameristar Casino Vicksburg",
   "address": "4116 Washington St\\n4116 Washington Street\\nVicksburg\\n39180\\nUnited States",
   "state": "MS",
   "url": "https://vicksburg.ameristar.com/",
   "category": ["Full Service Sports Book", "Mississippi"],
   "longitude": -90.90037,
   "latitude": 32.3159701,
   "hours": "Mon-Thu  11am-Midnight\\nFri - 11a-1a\\nSat - 9am - 1a\\nSun - 9am - Midnight\\n",
   "phone": "(601) 638-1000"
 },
 {
   "id": 166,
   "title": "Waterview Casino & Hotel",
   "address": "3990 Washington St\\n3990 Washington Street\\nVicksburg\\n39180\\nUnited States",
   "state": "MS",
   "url": "http://www.waterviewcasino.com/",
   "category": ["Full Service Sports Book", "Mississippi"],
   "longitude": -90.89718819,
   "latitude": 32.32434811881409,
   "hours": "Opens Daily at 10am",
   "phone": "(601) 636-5700"
 },
 {
   "id": 167,
   "title": "Hollywood Casino At Charles Town Races",
   "address": "580 E 5th Ave\\n580 East 5th Avenue\\nCharles Town\\n25414\\nUnited States",
   "state": "MS",
   "url": "https://www.hollywoodcasinocharlestown.com/",
   "category": ["Full Service Sports Book", "Mississippi"],
   "longitude": -77.850838,
   "latitude": 39.297581,
   "hours": "Monday: 10am to 1am\\nTuesday: 10am to 12am\\nWednesday: 10am to 12am\\nThursday: 10am to 1am\\nFriday: 10am to 2am\\nSaturday: 8am to 2am\\nSunday: 8am to 2am\\n",
   "phone": "(304) 725-7001"
 },
 {
   "id": 168,
   "title": "Tropicana Atlantic City",
   "address": "2831 Boardwalk\\nAtlantic City\\n08401\\nUnited States",
   "state": "NJ",
   "url": "https://tropicana.net/",
   "category": ["Full Service Sports Book", "New Jersey"],
   "longitude": -74.4445618,
   "latitude": 39.3523692,
   "hours": "Monday- Thursday: 10:00 A.M - 12:00 A.M\\nFriday, Saturday, & Sunday: 10:00 A.M - 1:00 A.M\\n\\n*No Mobile Deposit or Withdrawal at the moment",
   "phone": ""
 },
 {
   "id": 169,
   "title": "Mountaineer Racetrack & Resort",
   "address": "Mountaineer Casino, Racetrack & Resort\\n1420 Mountaineer Circle\\nNew Cumberland\\n26047\\nUnited States",
   "state": "WV",
   "url": "https://www.moreatmountaineer.com/",
   "category": ["Full Service Sports Book"],
   "longitude": -80.6538967,
   "latitude": 40.58128139999999,
   "hours": "Monday- Thursday: 10:00 A.M- 12:00 A.M\\nFriday: 10:00 A.M- 1:00 A.M\\nSaturday: 9:00 A.M -1:00 A.M\\nSunday: 9:00 A.M - 12:00 A.M",
   "phone": ""
 },
 {
   "id": 170,
   "title": "Resorts World Bimini Casino",
   "address": "Resorts World Bimini Resort and Marina\\nThe Bahamas",
   "state": "Bahamas",
   "url": "http://www.rwbimini.com/casino",
   "category": ["Sports Betting Kiosk"],
   "longitude": -79.2821932,
   "latitude": 25.7482216,
   "hours": "",
   "phone": ""
 },
 {
   "id": 171,
   "title": "Lakeside Inn and Casino Lake Tahoe",
   "address": "168 US-50\\n168 U.S. 50\\nStateline\\n89449\\nUnited States",
   "state": "NV",
   "url": "https://www.lakesideinn.com/",
   "category": ["Full Service Sports Book", "Nevada", "Race Book", "Sports Betting Kiosk"],
   "longitude": -119.9359724,
   "latitude": 38.9692301,
   "hours": "Monday- Thursday 9:00 AM -9:00 PM\\nFriday- 9:00 AM - 10:00 PM \\nSaturday- 8:00 AM - 10:00 PM\\nSunday- 8:00 AM - 9:00 PM",
   "phone": "775-588-7777"
 },
 {
   "id": 172,
   "title": "Arizona Charlie's Boulder Casino, Hotel & RV Park",
   "address": "4575 Boulder Hwy\\n4575 Boulder Highway\\nLas Vegas\\n89121\\nUnited States",
   "state": "NV",
   "url": "https://www.arizonacharliesboulder.com/",
   "category": ["Full Service Sports Book", "Nevada", "Sports Betting Kiosk"],
   "longitude": -115.0756976,
   "latitude": 36.1242508,
   "hours": "Monday- Friday: 9:00 A.M - 9:00 P.M \\nSaturday- Sunday: 8:00 A.M - 9:00 P.M",
   "phone": ""
 },
 {
   "id": 173,
   "title": "Arizona Charlie's Decatur Casino & Hotel",
   "address": "740 S Decatur Blvd\\n740 South Decatur Boulevard\\nLas Vegas\\n89107\\nUnited States",
   "state": "NV",
   "url": "https://www.arizonacharliesdecatur.com/",
   "category": ["Full Service Sports Book", "Nevada", "Race Book", "Sports Betting Kiosk"],
   "longitude": -115.207039,
   "latitude": 36.1636834,
   "hours": "Monday- Friday: 9:00 A.M - 10:00 P.M\\nSaturday- Sunday: 8:00 A.M - 9:00 P.M",
   "phone": ""
 },
 {
   "id": 174,
   "title": "The STRAT Hotel, Casino and Skypod",
   "address": "2000 S Las Vegas Blvd\\n2000 South Las Vegas Boulevard\\nLas Vegas\\n89104\\nUnited States",
   "state": "NV",
   "url": "https://www.stratospherehotel.com/",
   "category": ["Full Service Sports Book", "Nevada", "Race Book", "Sports Betting Kiosk"],
   "longitude": -115.1560311,
   "latitude": 36.1472468,
   "hours": "Sunday - Thursday: 8:00 A.M - 9:00 P.M \\nFriday & Saturday: 8:00 A.M - 10:00 P.M",
   "phone": ""
 },
 {
   "id": 175,
   "title": "Aquarius Casino Resort",
   "address": "1900 S Casino Dr\\n1900 South Casino Drive\\nLaughlin\\n89029\\nUnited States",
   "state": "NV",
   "url": "https://www.aquariuscasinoresort.com/",
   "category": ["Full Service Sports Book", "Nevada", "Race Book", "Sports Betting Kiosk"],
   "longitude": -114.5719655,
   "latitude": 35.16360350000001,
   "hours": "Monday- Sunday: 8:00 AM - 10:00 PM",
   "phone": ""
 },
 {
   "id": 176,
   "title": "Jerry's Nugget Casino",
   "address": "1821 N Las Vegas Blvd\\n1821 North Las Vegas Boulevard\\nNorth Las Vegas\\n89030\\nUnited States",
   "state": "NV",
   "url": "http://www.jerrysnugget.com/",
   "category": ["Full Service Sports Book", "Nevada", "Race Book", "Sports Betting Kiosk"],
   "longitude": -115.1324044,
   "latitude": 36.1930478,
   "hours": "Sunday- Thursday: 8:00 AM - 8:00 PM\\nFriday & Saturday: 8:00 AM - 9:00 PM",
   "phone": "702-399-3000"
 },
 {
   "id": 177,
   "title": "M Resort Spa Casino Las Vegas",
   "address": "12300 S Las Vegas Blvd\\n12300 South Las Vegas Boulevard\\nHenderson\\n89044\\nUnited States",
   "state": "NV",
   "url": "https://www.themresort.com/",
   "category": ["Full Service Sports Book", "Nevada", "Race Book"],
   "longitude": -115.1679801,
   "latitude": 35.9650723,
   "hours": "",
   "phone": ""
 },
 {
   "id": 178,
   "title": "7-Eleven",
   "address": "1490 E. Prater Way  102\\nSparks , NV 89434 US",
   "state": "NV",
   "url": "",
   "category": ["Nevada", "PayNearMe Mobile Deposits (7-Eleven)"],
   "longitude": -119.7164262,
   "latitude": 39.5425664,
   "hours": "",
   "phone": ""
 },
 {
   "id": 179,
   "title": "7-Eleven",
   "address": "250 Pyramid Way \\nSparks , NV 89431 US",
   "state": "NV",
   "url": "",
   "category": ["Nevada", "PayNearMe Mobile Deposits (7-Eleven)"],
   "longitude": -119.752286,
   "latitude": 39.5352419,
   "hours": "",
   "phone": ""
 },
 {
   "id": 180,
   "title": "7-Eleven",
   "address": "10170 N McCarran BLVD \\nReno, NV 89503 US",
   "state": "NV",
   "url": "",
   "category": ["Nevada", "PayNearMe Mobile Deposits (7-Eleven)"],
   "longitude": -119.8616214,
   "latitude": 39.5267702,
   "hours": "",
   "phone": ""
 },
 {
   "id": 181,
   "title": "7-Eleven",
   "address": "1620 El Rancho Drive  \\nSparks , NV 89431 US",
   "state": "NV",
   "url": "",
   "category": ["Nevada", "PayNearMe Mobile Deposits (7-Eleven)"],
   "longitude": -119.775602,
   "latitude": 39.547833,
   "hours": "",
   "phone": ""
 },
 {
   "id": 182,
   "title": "7-Eleven",
   "address": "710 Baring BLVD \\nSparks , NV 89434 US",
   "state": "NV",
   "url": "",
   "category": ["Nevada", "PayNearMe Mobile Deposits (7-Eleven)"],
   "longitude": -119.7329827,
   "latitude": 39.5567585,
   "hours": "",
   "phone": ""
 },
 {
   "id": 183,
   "title": "7-Eleven",
   "address": "425 Greenbrae \\nSparks , NV 89431 US",
   "state": "NV",
   "url": "",
   "category": ["Nevada", "PayNearMe Mobile Deposits (7-Eleven)"],
   "longitude": -119.7489702,
   "latitude": 39.5471297,
   "hours": "",
   "phone": ""
 },
 {
   "id": 184,
   "title": "7-Eleven",
   "address": "15 Eagle Canyon Drive  \\nSpanish Springs , NV 89436 US",
   "state": "NV",
   "url": "",
   "category": ["Nevada", "PayNearMe Mobile Deposits (7-Eleven)"],
   "longitude": -119.7125835,
   "latitude": 39.6384872,
   "hours": "",
   "phone": ""
 },
 {
   "id": 185,
   "title": "7-Eleven",
   "address": "1061 Steamboat PKWY \\nReno, NV 89521 US",
   "state": "NV",
   "url": "",
   "category": ["Nevada", "PayNearMe Mobile Deposits (7-Eleven)"],
   "longitude": -119.7424971,
   "latitude": 39.423852,
   "hours": "",
   "phone": ""
 },
 {
   "id": 186,
   "title": "7-Eleven",
   "address": "6150 S. McCarran \\nReno, NV 89509 US",
   "state": "NV",
   "url": "",
   "category": ["Nevada", "PayNearMe Mobile Deposits (7-Eleven)"],
   "longitude": -119.7918196,
   "latitude": 39.4763142,
   "hours": "",
   "phone": ""
 },
 {
   "id": 187,
   "title": "7-Eleven",
   "address": "4997 Longley Lane  #E\\nReno, NV 89502 US",
   "state": "NV",
   "url": "",
   "category": ["Nevada", "PayNearMe Mobile Deposits (7-Eleven)"],
   "longitude": -119.7650406,
   "latitude": 39.4775434,
   "hours": "",
   "phone": ""
 },
 {
   "id": 188,
   "title": "7-Eleven",
   "address": "1401 E. Peckam Lane  \\nReno, NV 89502 US",
   "state": "NV",
   "url": "",
   "category": ["Nevada", "PayNearMe Mobile Deposits (7-Eleven)"],
   "longitude": -119.7799513,
   "latitude": 39.4840371,
   "hours": "",
   "phone": ""
 },
 {
   "id": 189,
   "title": "7-Eleven",
   "address": "5105 Summit Ridge CT \\nReno, NV 89523 US",
   "state": "NV",
   "url": "",
   "category": ["Nevada", "PayNearMe Mobile Deposits (7-Eleven)"],
   "longitude": -119.8631444,
   "latitude": 39.520876,
   "hours": "",
   "phone": ""
 },
 {
   "id": 190,
   "title": "7-Eleven",
   "address": "4995 West 7th Ave \\nReno, NV 89503 US",
   "state": "NV",
   "url": "",
   "category": ["Nevada", "PayNearMe Mobile Deposits (7-Eleven)"],
   "longitude": -119.8638622,
   "latitude": 39.53673,
   "hours": "",
   "phone": ""
 },
 {
   "id": 191,
   "title": "7-Eleven",
   "address": "12605 S. Virginia St \\nReno, NV 89511 US",
   "state": "NV",
   "url": "",
   "category": ["Nevada", "PayNearMe Mobile Deposits (7-Eleven)"],
   "longitude": -119.7565225,
   "latitude": 39.4186392,
   "hours": "",
   "phone": ""
 },
 {
   "id": 192,
   "title": "7-Eleven",
   "address": "690 Booth St \\nReno, NV 89509 US",
   "state": "NV",
   "url": "",
   "category": ["Nevada", "PayNearMe Mobile Deposits (7-Eleven)"],
   "longitude": -119.8259877,
   "latitude": 39.5158535,
   "hours": "",
   "phone": ""
 },
 {
   "id": 193,
   "title": "7-Eleven",
   "address": "3300 South McCarran \\nReno, NV 89502 US",
   "state": "NV",
   "url": "",
   "category": ["Nevada", "PayNearMe Mobile Deposits (7-Eleven)"],
   "longitude": -119.747396,
   "latitude": 39.485779,
   "hours": "",
   "phone": ""
 },
 {
   "id": 194,
   "title": "7-Eleven",
   "address": "1665 North Virginia  \\nReno, NV 89503 US",
   "state": "NV",
   "url": "",
   "category": ["Nevada", "PayNearMe Mobile Deposits (7-Eleven)"],
   "longitude": -119.8216318,
   "latitude": 39.5479351,
   "hours": "",
   "phone": ""
 },
 {
   "id": 195,
   "title": "7-Eleven",
   "address": "3431 White Lake PKWY \\nReno, NV 89506 US",
   "state": "NV",
   "url": "",
   "category": ["Nevada", "PayNearMe Mobile Deposits (7-Eleven)"],
   "longitude": -119.9728289,
   "latitude": 39.6752116,
   "hours": "",
   "phone": ""
 },
 {
   "id": 196,
   "title": "7-Eleven",
   "address": "3085 South Virginia  \\nReno, NV 89502 US",
   "state": "NV",
   "url": "",
   "category": ["Nevada", "PayNearMe Mobile Deposits (7-Eleven)"],
   "longitude": -119.7984831,
   "latitude": 39.4947772,
   "hours": "",
   "phone": ""
 },
 {
   "id": 197,
   "title": "7-Eleven",
   "address": "610 Mt Rose  \\nReno, NV 89509 US",
   "state": "NV",
   "url": "",
   "category": ["Nevada", "PayNearMe Mobile Deposits (7-Eleven)"],
   "longitude": -119.814336,
   "latitude": 39.5089858,
   "hours": "",
   "phone": ""
 },
 {
   "id": 198,
   "title": "7-Eleven",
   "address": "690 E. 2nd St \\nReno, NV 89502 US",
   "state": "NV",
   "url": "",
   "category": ["Nevada", "PayNearMe Mobile Deposits (7-Eleven)"],
   "longitude": -119.803394,
   "latitude": 39.527107,
   "hours": "",
   "phone": ""
 },
 {
   "id": 199,
   "title": "7-Eleven",
   "address": "3491 Lakeside Drive  \\nReno, NV 89509 US",
   "state": "NV",
   "url": "",
   "category": ["Nevada", "PayNearMe Mobile Deposits (7-Eleven)"],
   "longitude": -119.8083448,
   "latitude": 39.4919144,
   "hours": "",
   "phone": ""
 },
 {
   "id": 200,
   "title": "7-Eleven",
   "address": "800 South Wells  \\nReno, NV 89502 US",
   "state": "NV",
   "url": "",
   "category": ["Nevada", "PayNearMe Mobile Deposits (7-Eleven)"],
   "longitude": -119.80284,
   "latitude": 39.518123,
   "hours": "",
   "phone": ""
 },
 {
   "id": 201,
   "title": "7-Eleven",
   "address": "1445 Geiger Grade  \\nReno, NV 89521 US",
   "state": "NV",
   "url": "",
   "category": ["Nevada", "PayNearMe Mobile Deposits (7-Eleven)"],
   "longitude": -119.7240495,
   "latitude": 39.3933753,
   "hours": "",
   "phone": ""
 },
 {
   "id": 202,
   "title": "7-Eleven",
   "address": "1680 Silverada BLVD \\nReno, NV 89512 US",
   "state": "NV",
   "url": "",
   "category": ["Nevada", "PayNearMe Mobile Deposits (7-Eleven)"],
   "longitude": -119.782559,
   "latitude": 39.544388,
   "hours": "",
   "phone": ""
 },
 {
   "id": 203,
   "title": "7-Eleven",
   "address": "7500 North Virginia  \\nReno, NV 89506 US",
   "state": "NV",
   "url": "",
   "category": ["Nevada", "PayNearMe Mobile Deposits (7-Eleven)"],
   "longitude": -119.8351372,
   "latitude": 39.5917636,
   "hours": "",
   "phone": ""
 },
 {
   "id": 204,
   "title": "7-Eleven",
   "address": "1770 Sutro \\nReno, NV 89512 US",
   "state": "NV",
   "url": "",
   "category": ["Nevada", "PayNearMe Mobile Deposits (7-Eleven)"],
   "longitude": -119.7982062,
   "latitude": 39.5456591,
   "hours": "",
   "phone": ""
 },
 {
   "id": 205,
   "title": "7-Eleven",
   "address": "770 Keystone Ave  \\nReno, NV 89503 US",
   "state": "NV",
   "url": "",
   "category": ["Nevada", "PayNearMe Mobile Deposits (7-Eleven)"],
   "longitude": -119.830886,
   "latitude": 39.531674,
   "hours": "",
   "phone": ""
 },
 {
   "id": 206,
   "title": "7-Eleven",
   "address": "302 Water St \\nHenderson, NV 89015 US",
   "state": "NV",
   "url": "",
   "category": ["Nevada", "PayNearMe Mobile Deposits (7-Eleven)"],
   "longitude": -114.9801293,
   "latitude": 36.0294127,
   "hours": "",
   "phone": ""
 },
 {
   "id": 207,
   "title": "7-Eleven",
   "address": "971 S. Boulder HWY \\nHenderson, NV 89015 US",
   "state": "NV",
   "url": "",
   "category": ["Nevada", "PayNearMe Mobile Deposits (7-Eleven)"],
   "longitude": -114.9621225,
   "latitude": 36.0204273,
   "hours": "",
   "phone": ""
 },
 {
   "id": 208,
   "title": "7-Eleven",
   "address": "1400 W. Horizon Ridge PKWY \\nHenderson, NV 89015 US",
   "state": "NV",
   "url": "",
   "category": ["Nevada", "PayNearMe Mobile Deposits (7-Eleven)"],
   "longitude": -115.047971,
   "latitude": 36.0221499,
   "hours": "",
   "phone": ""
 },
 {
   "id": 209,
   "title": "7-Eleven",
   "address": "850 E. Horizon Drive  \\nHenderson, NV 89015 US",
   "state": "NV",
   "url": "",
   "category": ["Nevada", "PayNearMe Mobile Deposits (7-Eleven)"],
   "longitude": -114.9543473,
   "latitude": 36.0129133,
   "hours": "",
   "phone": ""
 },
 {
   "id": 210,
   "title": "7-Eleven",
   "address": "84 E. Pacific Ave  \\nHenderson, NV 89015 US",
   "state": "NV",
   "url": "",
   "category": ["Nevada", "PayNearMe Mobile Deposits (7-Eleven)"],
   "longitude": -114.9810476,
   "latitude": 36.0362984,
   "hours": "",
   "phone": ""
 },
 {
   "id": 211,
   "title": "7-Eleven",
   "address": "589 Pacific Ave \\nHenderson, NV 89015 US",
   "state": "NV",
   "url": "",
   "category": ["Nevada", "PayNearMe Mobile Deposits (7-Eleven)"],
   "longitude": -114.9874145,
   "latitude": 36.013201,
   "hours": "",
   "phone": ""
 },
 {
   "id": 212,
   "title": "7-Eleven",
   "address": "870 E. Lake Mead Dr \\nHenderson, NV 89015 US",
   "state": "NV",
   "url": "",
   "category": ["Nevada", "PayNearMe Mobile Deposits (7-Eleven)"],
   "longitude": -114.9675565,
   "latitude": 36.0542918,
   "hours": "",
   "phone": ""
 },
 {
   "id": 213,
   "title": "7-Eleven",
   "address": "1453 N. Boulder HWY \\nHenderson, NV 89015 US",
   "state": "NV",
   "url": "",
   "category": ["Nevada", "PayNearMe Mobile Deposits (7-Eleven)"],
   "longitude": -114.9547426,
   "latitude": 36.0150757,
   "hours": "",
   "phone": ""
 },
 {
   "id": 214,
   "title": "7-Eleven",
   "address": "710 Center St \\nHenderson , NV 89015 US",
   "state": "NV",
   "url": "",
   "category": ["Nevada", "PayNearMe Mobile Deposits (7-Eleven)"],
   "longitude": -114.9667862,
   "latitude": 36.0383824,
   "hours": "",
   "phone": ""
 },
 {
   "id": 215,
   "title": "7-Eleven",
   "address": "1680 W Sunset Rd \\nHenderson, NV 89014 US",
   "state": "NV",
   "url": "",
   "category": ["Nevada", "PayNearMe Mobile Deposits (7-Eleven)"],
   "longitude": -115.0591268,
   "latitude": 36.0642811,
   "hours": "",
   "phone": ""
 },
 {
   "id": 216,
   "title": "7-Eleven",
   "address": "2935 W. Lake Mead BLVD \\nNorth Las Vegas, NV 89032 US",
   "state": "NV",
   "url": "",
   "category": ["Nevada", "PayNearMe Mobile Deposits (7-Eleven)"],
   "longitude": -115.179217,
   "latitude": 36.1969682,
   "hours": "",
   "phone": ""
 },
 {
   "id": 217,
   "title": "7-Eleven",
   "address": "849 Nevada Hwy \\nBoulder City , NV 89005 US",
   "state": "NV",
   "url": "",
   "category": ["Nevada", "PayNearMe Mobile Deposits (7-Eleven)"],
   "longitude": -114.8425432,
   "latitude": 35.9734866,
   "hours": "",
   "phone": ""
 },
 {
   "id": 218,
   "title": "7-Eleven",
   "address": "7009 Aliante BLVD \\nNorth Las Vegas, NV 89084 US",
   "state": "NV",
   "url": "",
   "category": ["Nevada", "PayNearMe Mobile Deposits (7-Eleven)"],
   "longitude": -115.1795545,
   "latitude": 36.2877449,
   "hours": "",
   "phone": ""
 },
 {
   "id": 219,
   "title": "7-Eleven",
   "address": "2525 W. Deer Springs Way \\nNorth Las Vegas, NV 89084 US",
   "state": "NV",
   "url": "",
   "category": ["Nevada", "PayNearMe Mobile Deposits (7-Eleven)"],
   "longitude": -115.178186,
   "latitude": 36.2840218,
   "hours": "",
   "phone": ""
 },
 {
   "id": 220,
   "title": "7-Eleven",
   "address": "6620 N. 5th St  \\nNorth Las Vegas, NV 89084 US",
   "state": "NV",
   "url": "",
   "category": ["Nevada", "PayNearMe Mobile Deposits (7-Eleven)"],
   "longitude": -115.1348187,
   "latitude": 36.2807804,
   "hours": "",
   "phone": ""
 },
 {
   "id": 221,
   "title": "7-Eleven",
   "address": "5180 Losee Road \\nNorth Las Vegas , NV 89081 US",
   "state": "NV",
   "url": "",
   "category": ["Nevada", "PayNearMe Mobile Deposits (7-Eleven)"],
   "longitude": -115.116503,
   "latitude": 36.2537909,
   "hours": "",
   "phone": ""
 },
 {
   "id": 222,
   "title": "7-Eleven",
   "address": "835 Seven Hills Drive \\nHenderson, NV 89052 US",
   "state": "NV",
   "url": "",
   "category": ["Nevada", "PayNearMe Mobile Deposits (7-Eleven)"],
   "longitude": -115.1246448,
   "latitude": 35.9967217,
   "hours": "",
   "phone": ""
 },
 {
   "id": 223,
   "title": "7-Eleven",
   "address": "2490 Horizon Ridge PKWY \\nHenderson, NV 89052 US",
   "state": "NV",
   "url": "",
   "category": ["Nevada", "PayNearMe Mobile Deposits (7-Eleven)"],
   "longitude": -115.0948831,
   "latitude": 36.0065029,
   "hours": "",
   "phone": ""
 },
 {
   "id": 224,
   "title": "7-Eleven",
   "address": "2100 E. Cheyenne Ave \\nNorth Las Vegas, NV 89030 US",
   "state": "NV",
   "url": "",
   "category": ["Nevada", "PayNearMe Mobile Deposits (7-Eleven)"],
   "longitude": -115.1196986,
   "latitude": 36.2180188,
   "hours": "",
   "phone": ""
 },
 {
   "id": 225,
   "title": "7-Eleven",
   "address": "2404 E. Craig Road \\nNorth Las Vegas, NV 89032 US",
   "state": "NV",
   "url": "",
   "category": ["Nevada", "PayNearMe Mobile Deposits (7-Eleven)"],
   "longitude": -115.1756634,
   "latitude": 36.2395304,
   "hours": "",
   "phone": ""
 },
 {
   "id": 226,
   "title": "7-Eleven",
   "address": "1011 E. Cheyenne Ave  \\nNorth Las Vegas, NV 89030 US",
   "state": "NV",
   "url": "",
   "category": ["Nevada", "PayNearMe Mobile Deposits (7-Eleven)"],
   "longitude": -115.1279521,
   "latitude": 36.2172829,
   "hours": "",
   "phone": ""
 },
 {
   "id": 227,
   "title": "7-Eleven",
   "address": "2716 E. Lake Mead BLVD \\nNorth Las Vegas, NV 89030 US",
   "state": "NV",
   "url": "",
   "category": ["Nevada", "PayNearMe Mobile Deposits (7-Eleven)"],
   "longitude": -115.111542,
   "latitude": 36.196311,
   "hours": "",
   "phone": ""
 },
 {
   "id": 228,
   "title": "7-Eleven",
   "address": "2325 Las Vegas BLVD N. \\nNorth Las Vegas, NV 89030 US",
   "state": "NV",
   "url": "",
   "category": ["Nevada", "PayNearMe Mobile Deposits (7-Eleven)"],
   "longitude": -115.1200967,
   "latitude": 36.2024168,
   "hours": "",
   "phone": ""
 },
 {
   "id": 229,
   "title": "7-Eleven",
   "address": "2000 Las Vegas BLVD N. \\nNorth Las Vegas, NV 89030 US",
   "state": "NV",
   "url": "",
   "category": ["Nevada", "PayNearMe Mobile Deposits (7-Eleven)"],
   "longitude": -115.1281507,
   "latitude": 36.1960834,
   "hours": "",
   "phone": ""
 },
 {
   "id": 230,
   "title": "7-Eleven",
   "address": "3901 E. Craig Rd \\nNorth Las Vegas, NV 89030 US",
   "state": "NV",
   "url": "",
   "category": ["Nevada", "PayNearMe Mobile Deposits (7-Eleven)"],
   "longitude": -115.0887606,
   "latitude": 36.240041,
   "hours": "",
   "phone": ""
 },
 {
   "id": 231,
   "title": "7-Eleven",
   "address": "3575 E. Lake Mead BLVD \\nLas Vegas, NV 89030 US",
   "state": "NV",
   "url": "",
   "category": ["Nevada", "PayNearMe Mobile Deposits (7-Eleven)"],
   "longitude": -115.0987653,
   "latitude": 36.1953741,
   "hours": "",
   "phone": ""
 },
 {
   "id": 232,
   "title": "7-Eleven",
   "address": "2725 N. Las Vegas BLVD \\nNorth Las Vegas, NV 89030 US",
   "state": "NV",
   "url": "",
   "category": ["Nevada", "PayNearMe Mobile Deposits (7-Eleven)"],
   "longitude": -115.1083296,
   "latitude": 36.2095197,
   "hours": "",
   "phone": ""
 },
 {
   "id": 233,
   "title": "7-Eleven",
   "address": "3695 S. Ft. Apache Rd \\nLas Vegas, NV 89147 US",
   "state": "NV",
   "url": "",
   "category": ["Nevada", "PayNearMe Mobile Deposits (7-Eleven)"],
   "longitude": -115.2978472,
   "latitude": 36.1227727,
   "hours": "",
   "phone": ""
 },
 {
   "id": 234,
   "title": "7-Eleven",
   "address": "8180 Blue Diamond Rd \\nLas Vegas, NV 89178 US",
   "state": "NV",
   "url": "",
   "category": ["Nevada", "PayNearMe Mobile Deposits (7-Eleven)"],
   "longitude": -115.2697317,
   "latitude": 36.0202615,
   "hours": "",
   "phone": ""
 },
 {
   "id": 235,
   "title": "7-Eleven",
   "address": "3716 South Paradise Rd \\nLas Vegas, NV 89169 US",
   "state": "NV",
   "url": "",
   "category": ["Nevada", "PayNearMe Mobile Deposits (7-Eleven)"],
   "longitude": -115.1546452,
   "latitude": 36.1214619,
   "hours": "",
   "phone": ""
 },
 {
   "id": 236,
   "title": "7-Eleven",
   "address": "815 E. Twain \\nLas Vegas, NV 89169 US",
   "state": "NV",
   "url": "",
   "category": ["Nevada", "PayNearMe Mobile Deposits (7-Eleven)"],
   "longitude": -115.1458315,
   "latitude": 36.1214935,
   "hours": "",
   "phone": ""
 },
 {
   "id": 237,
   "title": "7-Eleven",
   "address": "3685 S. Maryland PKWY \\nLas Vegas, NV 89169 US",
   "state": "NV",
   "url": "",
   "category": ["Nevada", "PayNearMe Mobile Deposits (7-Eleven)"],
   "longitude": -115.1380214,
   "latitude": 36.1224171,
   "hours": "",
   "phone": ""
 },
 {
   "id": 238,
   "title": "7-Eleven",
   "address": "6515 E. Lake Mead \\nLas Vegas, NV 89156 US",
   "state": "NV",
   "url": "",
   "category": ["Nevada", "PayNearMe Mobile Deposits (7-Eleven)"],
   "longitude": -115.0300421,
   "latitude": 36.1950687,
   "hours": "",
   "phone": ""
 },
 {
   "id": 239,
   "title": "7-Eleven",
   "address": "6446 N. Durango Drive \\nLas Vegas, NV 89149 US",
   "state": "NV",
   "url": "",
   "category": ["Nevada", "PayNearMe Mobile Deposits (7-Eleven)"],
   "longitude": -115.2871584,
   "latitude": 36.2780541,
   "hours": "",
   "phone": ""
 },
 {
   "id": 240,
   "title": "7-Eleven",
   "address": "9755 West Russell Rd \\nLas Vegas, NV 89148 US",
   "state": "NV",
   "url": "",
   "category": ["Nevada", "PayNearMe Mobile Deposits (7-Eleven)"],
   "longitude": -115.305997,
   "latitude": 36.084564,
   "hours": "",
   "phone": ""
 },
 {
   "id": 241,
   "title": "7-Eleven",
   "address": "9011 W. Flamingo Rd \\nLas Vegas, NV 89147 US",
   "state": "NV",
   "url": "",
   "category": ["Nevada", "PayNearMe Mobile Deposits (7-Eleven)"],
   "longitude": -115.2883718,
   "latitude": 36.1145206,
   "hours": "",
   "phone": ""
 },
 {
   "id": 242,
   "title": "7-Eleven",
   "address": "4800 N. Jones BLVD \\nLas Vegas, NV 89130 US",
   "state": "NV",
   "url": "",
   "category": ["Nevada", "PayNearMe Mobile Deposits (7-Eleven)"],
   "longitude": -115.2250966,
   "latitude": 36.2466572,
   "hours": "",
   "phone": ""
 },
 {
   "id": 243,
   "title": "7-Eleven",
   "address": "6070 West Sahara Ave \\nLas Vegas, NV 89146 US",
   "state": "NV",
   "url": "",
   "category": ["Nevada", "PayNearMe Mobile Deposits (7-Eleven)"],
   "longitude": -115.2248179,
   "latitude": 36.1447711,
   "hours": "",
   "phone": ""
 },
 {
   "id": 244,
   "title": "7-Eleven",
   "address": "2510 S. Rainbow BLVD \\nLas Vegas, NV 89146 US",
   "state": "NV",
   "url": "",
   "category": ["Nevada", "PayNearMe Mobile Deposits (7-Eleven)"],
   "longitude": -115.2423874,
   "latitude": 36.1437831,
   "hours": "",
   "phone": ""
 },
 {
   "id": 245,
   "title": "7-Eleven",
   "address": "6980 Westcliff Drive \\nLas Vegas, NV 89145 US",
   "state": "NV",
   "url": "",
   "category": ["Nevada", "PayNearMe Mobile Deposits (7-Eleven)"],
   "longitude": -115.2505478,
   "latitude": 36.1742468,
   "hours": "",
   "phone": ""
 },
 {
   "id": 246,
   "title": "7-Eleven",
   "address": "1200 N. Town Center \\nLas Vegas, NV 89144 US",
   "state": "NV",
   "url": "",
   "category": ["Nevada", "PayNearMe Mobile Deposits (7-Eleven)"],
   "longitude": -115.3098303,
   "latitude": 36.18336,
   "hours": "",
   "phone": ""
 },
 {
   "id": 247,
   "title": "7-Eleven",
   "address": "7785 N. Durango Drive \\nLas Vegas, NV 89143 US",
   "state": "NV",
   "url": "",
   "category": ["Nevada", "PayNearMe Mobile Deposits (7-Eleven)"],
   "longitude": -115.2822117,
   "latitude": 36.3027192,
   "hours": "",
   "phone": ""
 },
 {
   "id": 248,
   "title": "7-Eleven",
   "address": "7591 Cimarron Rd \\nLas Vegas, NV 89131 US",
   "state": "NV",
   "url": "",
   "category": ["Nevada", "PayNearMe Mobile Deposits (7-Eleven)"],
   "longitude": -115.2700053,
   "latitude": 36.298219,
   "hours": "",
   "phone": ""
 },
 {
   "id": 249,
   "title": "7-Eleven",
   "address": "9190 W. Cheyenne Ave  \\nLas Vegas, NV 89129 US",
   "state": "NV",
   "url": "",
   "category": ["Nevada", "PayNearMe Mobile Deposits (7-Eleven)"],
   "longitude": -115.2964976,
   "latitude": 36.219141,
   "hours": "",
   "phone": ""
 },
 {
   "id": 250,
   "title": "7-Eleven",
   "address": "3970 N. Tenaya Way \\nLas Vegas, NV 89129 US",
   "state": "NV",
   "url": "",
   "category": ["Nevada", "PayNearMe Mobile Deposits (7-Eleven)"],
   "longitude": -115.2506697,
   "latitude": 36.2327637,
   "hours": "",
   "phone": ""
 },
 {
   "id": 251,
   "title": "7-Eleven",
   "address": "5009 East Tropicana \\nLas Vegas, NV 89122 US",
   "state": "NV",
   "url": "",
   "category": ["Nevada", "PayNearMe Mobile Deposits (7-Eleven)"],
   "longitude": -115.0634966,
   "latitude": 36.0997934,
   "hours": "",
   "phone": ""
 },
 {
   "id": 252,
   "title": "7-Eleven",
   "address": "9300 S. Eastern Ave \\nLas Vegas , NV 89123 US",
   "state": "NV",
   "url": "",
   "category": ["Nevada", "PayNearMe Mobile Deposits (7-Eleven)"],
   "longitude": -115.117846,
   "latitude": 36.0201153,
   "hours": "",
   "phone": ""
 },
 {
   "id": 253,
   "title": "7-Eleven",
   "address": "405 E. Sliverado Ranch BLVD \\nLas Vegas, NV 89123 US",
   "state": "NV",
   "url": "",
   "category": ["Nevada", "PayNearMe Mobile Deposits (7-Eleven)"],
   "longitude": -115.1542808,
   "latitude": 36.0128454,
   "hours": "",
   "phone": ""
 },
 {
   "id": 254,
   "title": "7-Eleven",
   "address": "8925 S. Las Vegas BLVD \\nLas Vegas, NV 89123 US",
   "state": "NV",
   "url": "",
   "category": ["Nevada", "PayNearMe Mobile Deposits (7-Eleven)"],
   "longitude": -115.1731701,
   "latitude": 36.0279083,
   "hours": "",
   "phone": ""
 },
 {
   "id": 255,
   "title": "7-Eleven",
   "address": "425 E. Windmill LN \\nLas Vegas, NV 89123 US",
   "state": "NV",
   "url": "",
   "category": ["Nevada", "PayNearMe Mobile Deposits (7-Eleven)"],
   "longitude": -115.1536292,
   "latitude": 36.0419726,
   "hours": "",
   "phone": ""
 },
 {
   "id": 256,
   "title": "7-Eleven",
   "address": "8080 Las Vegas BLVD South \\nLas Vegas, NV 89123 US",
   "state": "NV",
   "url": "",
   "category": ["Nevada", "PayNearMe Mobile Deposits (7-Eleven)"],
   "longitude": -115.1716369,
   "latitude": 36.0427643,
   "hours": "",
   "phone": ""
 },
 {
   "id": 257,
   "title": "7-Eleven",
   "address": "7311 S. Eastern \\nLas Vegas, NV 89123 US",
   "state": "NV",
   "url": "",
   "category": ["Nevada", "PayNearMe Mobile Deposits (7-Eleven)"],
   "longitude": -115.1176708,
   "latitude": 36.0564295,
   "hours": "",
   "phone": ""
 },
 {
   "id": 258,
   "title": "7-Eleven",
   "address": "5576 Boulder Highway \\nLas Vegas , NV 89122 US",
   "state": "NV",
   "url": "",
   "category": ["Nevada", "PayNearMe Mobile Deposits (7-Eleven)"],
   "longitude": -115.0522322,
   "latitude": 36.101164,
   "hours": "",
   "phone": ""
 },
 {
   "id": 259,
   "title": "7-Eleven",
   "address": "3220 E. Desert Inn Rd \\nLas Vegas , NV 89121 US",
   "state": "NV",
   "url": "",
   "category": ["Nevada", "PayNearMe Mobile Deposits (7-Eleven)"],
   "longitude": -115.1049614,
   "latitude": 36.1302449,
   "hours": "",
   "phone": ""
 },
 {
   "id": 260,
   "title": "7-Eleven",
   "address": "3673 Indios Ave  \\nLas Vegas, NV 89121 US",
   "state": "NV",
   "url": "",
   "category": ["Nevada", "PayNearMe Mobile Deposits (7-Eleven)"],
   "longitude": -115.0737783,
   "latitude": 36.122352,
   "hours": "",
   "phone": ""
 },
 {
   "id": 261,
   "title": "7-Eleven",
   "address": "3711 E. Flamingo RD \\nLas Vegas , NV 89121 US",
   "state": "NV",
   "url": "",
   "category": ["Nevada", "PayNearMe Mobile Deposits (7-Eleven)"],
   "longitude": -115.0923961,
   "latitude": 36.1148239,
   "hours": "",
   "phone": ""
 },
 {
   "id": 262,
   "title": "7-Eleven",
   "address": "4615 E. Tropicana \\nLas Vegas, NV 89121 US",
   "state": "NV",
   "url": "",
   "category": ["Nevada", "PayNearMe Mobile Deposits (7-Eleven)"],
   "longitude": -115.0727794,
   "latitude": 36.0998387,
   "hours": "",
   "phone": ""
 },
 {
   "id": 263,
   "title": "7-Eleven",
   "address": "4151 Boulder HWY \\nLas Vegas, NV 89121 US",
   "state": "NV",
   "url": "",
   "category": ["Nevada", "PayNearMe Mobile Deposits (7-Eleven)"],
   "longitude": -115.0837561,
   "latitude": 36.1309073,
   "hours": "",
   "phone": ""
 },
 {
   "id": 264,
   "title": "7-Eleven",
   "address": "3421 E. Tropicana Ave \\nLas Vegas, NV 89121 US",
   "state": "NV",
   "url": "",
   "category": ["Nevada", "PayNearMe Mobile Deposits (7-Eleven)"],
   "longitude": -115.1000454,
   "latitude": 36.0992774,
   "hours": "",
   "phone": ""
 },
 {
   "id": 265,
   "title": "7-Eleven",
   "address": "3768 E. Tropicana Ave  \\nLas Vegas , NV 89121 US",
   "state": "NV",
   "url": "",
   "category": ["Nevada", "PayNearMe Mobile Deposits (7-Eleven)"],
   "longitude": -115.092522,
   "latitude": 36.1006349,
   "hours": "",
   "phone": ""
 },
 {
   "id": 266,
   "title": "7-Eleven",
   "address": "2919 South Nellis BLVD \\nLas Vegas, NV 89121 US",
   "state": "NV",
   "url": "",
   "category": ["Nevada", "PayNearMe Mobile Deposits (7-Eleven)"],
   "longitude": -115.066019,
   "latitude": 36.136652,
   "hours": "",
   "phone": ""
 },
 {
   "id": 267,
   "title": "7-Eleven",
   "address": "3790 E. Desert Inn Rd \\nLas Vegas, NV 89121 US",
   "state": "NV",
   "url": "",
   "category": ["Nevada", "PayNearMe Mobile Deposits (7-Eleven)"],
   "longitude": -115.0927148,
   "latitude": 36.1296296,
   "hours": "",
   "phone": ""
 },
 {
   "id": 268,
   "title": "7-Eleven",
   "address": "6495 S Pecos Rd \\nLas Vegas, NV 89120 US",
   "state": "NV",
   "url": "",
   "category": ["Nevada", "PayNearMe Mobile Deposits (7-Eleven)"],
   "longitude": -115.1015649,
   "latitude": 36.0721754,
   "hours": "",
   "phone": ""
 },
 {
   "id": 269,
   "title": "7-Eleven",
   "address": "4620 Russell Rd \\nLas Vegas, NV 89120 US",
   "state": "NV",
   "url": "",
   "category": ["Nevada", "PayNearMe Mobile Deposits (7-Eleven)"],
   "longitude": -115.072684,
   "latitude": 36.086098,
   "hours": "",
   "phone": ""
 },
 {
   "id": 270,
   "title": "7-Eleven",
   "address": "3995 East Sunset Rd \\nLas Vegas, NV 89120 US",
   "state": "NV",
   "url": "",
   "category": ["Nevada", "PayNearMe Mobile Deposits (7-Eleven)"],
   "longitude": -115.0873696,
   "latitude": 36.0705776,
   "hours": "",
   "phone": ""
 },
 {
   "id": 271,
   "title": "7-Eleven",
   "address": "700 E. Naples Drive \\nLas Vegas, NV 89119 US",
   "state": "NV",
   "url": "",
   "category": ["Nevada", "PayNearMe Mobile Deposits (7-Eleven)"],
   "longitude": -115.1492441,
   "latitude": 36.1059852,
   "hours": "",
   "phone": ""
 },
 {
   "id": 272,
   "title": "7-Eleven",
   "address": "7271 Amigo St \\nLas Vegas, NV 89119 US",
   "state": "NV",
   "url": "",
   "category": ["Nevada", "PayNearMe Mobile Deposits (7-Eleven)"],
   "longitude": -115.1506799,
   "latitude": 36.057589,
   "hours": "",
   "phone": ""
 },
 {
   "id": 273,
   "title": "7-Eleven",
   "address": "5085 S Eastern Ave \\nLas Vegas, NV 89119 US",
   "state": "NV",
   "url": "",
   "category": ["Nevada", "PayNearMe Mobile Deposits (7-Eleven)"],
   "longitude": -115.1194654,
   "latitude": 36.0967914,
   "hours": "",
   "phone": ""
 },
 {
   "id": 274,
   "title": "7-Eleven",
   "address": "1730 Tropicana \\nLas Vegas , NV 89119 US",
   "state": "NV",
   "url": "",
   "category": ["Nevada", "PayNearMe Mobile Deposits (7-Eleven)"],
   "longitude": -115.1286216,
   "latitude": 36.1013421,
   "hours": "",
   "phone": ""
 },
 {
   "id": 275,
   "title": "7-Eleven",
   "address": "4482 Maryland Parkway \\nLas Vegas , NV 89119 US",
   "state": "NV",
   "url": "",
   "category": ["Nevada", "PayNearMe Mobile Deposits (7-Eleven)"],
   "longitude": -115.1370008,
   "latitude": 36.1080428,
   "hours": "",
   "phone": ""
 },
 {
   "id": 276,
   "title": "7-Eleven",
   "address": "7650 W. Charleston BLVD \\nLas Vegas , NV 89117 US",
   "state": "NV",
   "url": "",
   "category": ["Nevada", "PayNearMe Mobile Deposits (7-Eleven)"],
   "longitude": -115.2615743,
   "latitude": 36.1595773,
   "hours": "",
   "phone": ""
 },
 {
   "id": 277,
   "title": "7-Eleven",
   "address": "7291 Las Vegas BLVD South \\nLas Vegas , NV 89119 US",
   "state": "NV",
   "url": "",
   "category": ["Nevada", "PayNearMe Mobile Deposits (7-Eleven)"],
   "longitude": -115.172912,
   "latitude": 36.057251,
   "hours": "",
   "phone": ""
 },
 {
   "id": 278,
   "title": "7-Eleven",
   "address": "6515 S. Eastern Ave \\nLas Vegas, NV 89119 US",
   "state": "NV",
   "url": "",
   "category": ["Nevada", "PayNearMe Mobile Deposits (7-Eleven)"],
   "longitude": -115.1192294,
   "latitude": 36.0712294,
   "hours": "",
   "phone": ""
 },
 {
   "id": 279,
   "title": "7-Eleven",
   "address": "4055 S. Eastern Ave \\nLas Vegas, NV 89119 US",
   "state": "NV",
   "url": "",
   "category": ["Nevada", "PayNearMe Mobile Deposits (7-Eleven)"],
   "longitude": -115.119658,
   "latitude": 36.115465,
   "hours": "",
   "phone": ""
 },
 {
   "id": 280,
   "title": "7-Eleven",
   "address": "5095 S. Decatur BLVD \\nLas Vegas , NV 89118 US",
   "state": "NV",
   "url": "",
   "category": ["Nevada", "PayNearMe Mobile Deposits (7-Eleven)"],
   "longitude": -115.2086833,
   "latitude": 36.097465,
   "hours": "",
   "phone": ""
 },
 {
   "id": 281,
   "title": "7-Eleven",
   "address": "6930 S. Rainbow BLVD \\nLas Vegas , NV 89118 US",
   "state": "NV",
   "url": "",
   "category": ["Nevada", "PayNearMe Mobile Deposits (7-Eleven)"],
   "longitude": -115.2420785,
   "latitude": 36.0625212,
   "hours": "",
   "phone": ""
 },
 {
   "id": 282,
   "title": "7-Eleven",
   "address": "6920 W. Tropicana BLVD \\nLas Vegas, NV 89117 US",
   "state": "NV",
   "url": "",
   "category": ["Nevada", "PayNearMe Mobile Deposits (7-Eleven)"],
   "longitude": -115.2436867,
   "latitude": 36.1002566,
   "hours": "",
   "phone": ""
 },
 {
   "id": 283,
   "title": "7-Eleven",
   "address": "8639 W. Sahara BLVD \\nLas Vegas, NV 89117 US",
   "state": "NV",
   "url": "",
   "category": ["Nevada", "PayNearMe Mobile Deposits (7-Eleven)"],
   "longitude": -115.2798528,
   "latitude": 36.1428242,
   "hours": "",
   "phone": ""
 },
 {
   "id": 284,
   "title": "7-Eleven",
   "address": "3625 Las Vegas BLVD North \\nLas Vegas, NV 89115 US",
   "state": "NV",
   "url": "",
   "category": ["Nevada", "PayNearMe Mobile Deposits (7-Eleven)"],
   "longitude": -115.084502,
   "latitude": 36.223684,
   "hours": "",
   "phone": ""
 },
 {
   "id": 285,
   "title": "7-Eleven",
   "address": "4395 Las Vegas BLVD North \\nLas Vegas, NV 89115 US",
   "state": "NV",
   "url": "",
   "category": ["Nevada", "PayNearMe Mobile Deposits (7-Eleven)"],
   "longitude": -115.0557197,
   "latitude": 36.2401746,
   "hours": "",
   "phone": ""
 },
 {
   "id": 286,
   "title": "7-Eleven",
   "address": "4180 N. Las Vegas BLVD \\nLas Vegas, NV 89115 US",
   "state": "NV",
   "url": "",
   "category": ["Nevada", "PayNearMe Mobile Deposits (7-Eleven)"],
   "longitude": -115.0617173,
   "latitude": 36.2358181,
   "hours": "",
   "phone": ""
 },
 {
   "id": 287,
   "title": "7-Eleven",
   "address": "3533 North Pecos Rd \\nLas Vegas , NV 89115 US",
   "state": "NV",
   "url": "",
   "category": ["Nevada", "PayNearMe Mobile Deposits (7-Eleven)"],
   "longitude": -115.099176,
   "latitude": 36.2248961,
   "hours": "",
   "phone": ""
 },
 {
   "id": 288,
   "title": "7-Eleven",
   "address": "3130 N. Las Vegas BLVD \\nLas Vegas, NV 89115 US",
   "state": "NV",
   "url": "",
   "category": ["Nevada", "PayNearMe Mobile Deposits (7-Eleven)"],
   "longitude": -115.0975506,
   "latitude": 36.2146851,
   "hours": "",
   "phone": ""
 },
 {
   "id": 289,
   "title": "7-Eleven",
   "address": "5891 E. Lake Mead BLVD \\nLas Vegas , NV 89115 US",
   "state": "NV",
   "url": "",
   "category": ["Nevada", "PayNearMe Mobile Deposits (7-Eleven)"],
   "longitude": -115.0442413,
   "latitude": 36.1958039,
   "hours": "",
   "phone": ""
 },
 {
   "id": 290,
   "title": "7-Eleven",
   "address": "6310 E. Lake Mead BLVD \\nLas Vegas, NV 89115 US",
   "state": "NV",
   "url": "",
   "category": ["Nevada", "PayNearMe Mobile Deposits (7-Eleven)"],
   "longitude": -115.0350535,
   "latitude": 36.1962911,
   "hours": "",
   "phone": ""
 },
 {
   "id": 291,
   "title": "7-Eleven",
   "address": "6710 E. Lake Mead \\nLas Vegas , NV 89115 US",
   "state": "NV",
   "url": "",
   "category": ["Nevada", "PayNearMe Mobile Deposits (7-Eleven)"],
   "longitude": -115.025832,
   "latitude": 36.195941,
   "hours": "",
   "phone": ""
 },
 {
   "id": 292,
   "title": "7-Eleven",
   "address": "7325 S. Buffalo \\nLas Vegas , NV 89113 US",
   "state": "NV",
   "url": "",
   "category": ["Nevada", "PayNearMe Mobile Deposits (7-Eleven)"],
   "longitude": -115.2611906,
   "latitude": 36.0540718,
   "hours": "",
   "phone": ""
 },
 {
   "id": 293,
   "title": "7-Eleven",
   "address": "875 North Lamb BLVD \\nLas Vegas , NV 89110 US",
   "state": "NV",
   "url": "",
   "category": ["Nevada", "PayNearMe Mobile Deposits (7-Eleven)"],
   "longitude": -115.0799153,
   "latitude": 36.1805724,
   "hours": "",
   "phone": ""
 },
 {
   "id": 294,
   "title": "7-Eleven",
   "address": "3520 Owens Ave  \\nLas Vegas , NV 89110 US",
   "state": "NV",
   "url": "",
   "category": ["Nevada", "PayNearMe Mobile Deposits (7-Eleven)"],
   "longitude": -115.0979688,
   "latitude": 36.1886086,
   "hours": "",
   "phone": ""
 },
 {
   "id": 295,
   "title": "7-Eleven",
   "address": "5099 E. Bonanza Rd. \\nLas Vegas , NV 89110 US",
   "state": "NV",
   "url": "",
   "category": ["Nevada", "PayNearMe Mobile Deposits (7-Eleven)"],
   "longitude": -115.0627346,
   "latitude": 36.1744316,
   "hours": "",
   "phone": ""
 },
 {
   "id": 296,
   "title": "7-Eleven",
   "address": "3501 East Bonanza Rd \\nLas Vegas , NV 89110 US",
   "state": "NV",
   "url": "",
   "category": ["Nevada", "PayNearMe Mobile Deposits (7-Eleven)"],
   "longitude": -115.0978248,
   "latitude": 36.173227,
   "hours": "",
   "phone": ""
 },
 {
   "id": 297,
   "title": "7-Eleven",
   "address": "15 N. Lamb BLVD \\nLas Vegas , NV 89110 US",
   "state": "NV",
   "url": "",
   "category": ["Nevada", "PayNearMe Mobile Deposits (7-Eleven)"],
   "longitude": -115.0806276,
   "latitude": 36.1595251,
   "hours": "",
   "phone": ""
 },
 {
   "id": 298,
   "title": "7-Eleven",
   "address": "3190 N. Lamb BLVD \\nLas Vegas, NV 89115 US",
   "state": "NV",
   "url": "",
   "category": ["Nevada", "PayNearMe Mobile Deposits (7-Eleven)"],
   "longitude": -115.0792803,
   "latitude": 36.2172051,
   "hours": "",
   "phone": ""
 },
 {
   "id": 299,
   "title": "7-Eleven",
   "address": "225 North Lamb BLVD \\nLas Vegas , NV 89110 US",
   "state": "NV",
   "url": "",
   "category": ["Nevada", "PayNearMe Mobile Deposits (7-Eleven)"],
   "longitude": -115.0810688,
   "latitude": 36.1659567,
   "hours": "",
   "phone": ""
 },
 {
   "id": 300,
   "title": "7-Eleven",
   "address": "301 N. Nellis BLVD \\nLas Vegas , NV 89110 US",
   "state": "NV",
   "url": "",
   "category": ["Nevada", "PayNearMe Mobile Deposits (7-Eleven)"],
   "longitude": -115.0624799,
   "latitude": 36.1668001,
   "hours": "",
   "phone": ""
 },
 {
   "id": 301,
   "title": "7-Eleven",
   "address": "3589 N. Nellis BLVD \\nLas Vegas , NV 89115 US",
   "state": "NV",
   "url": "",
   "category": ["Nevada", "PayNearMe Mobile Deposits (7-Eleven)"],
   "longitude": -115.062622,
   "latitude": 36.225467,
   "hours": "",
   "phone": ""
 },
 {
   "id": 302,
   "title": "7-Eleven",
   "address": "2683 S. Maryland PKWY \\nLas Vegas , NV 89109 US",
   "state": "NV",
   "url": "",
   "category": ["Nevada", "PayNearMe Mobile Deposits (7-Eleven)"],
   "longitude": -115.1374574,
   "latitude": 36.1409449,
   "hours": "",
   "phone": ""
 },
 {
   "id": 303,
   "title": "7-Eleven",
   "address": "10 North Nellis BLVD \\nLas Vegas , NV 89110 US",
   "state": "NV",
   "url": "",
   "category": ["Nevada", "PayNearMe Mobile Deposits (7-Eleven)"],
   "longitude": -115.0618067,
   "latitude": 36.1592776,
   "hours": "",
   "phone": ""
 },
 {
   "id": 304,
   "title": "7-Eleven",
   "address": "3001 Las Vegas BLVD South \\nLas Vegas , NV 89109 US",
   "state": "NV",
   "url": "",
   "category": ["Nevada", "PayNearMe Mobile Deposits (7-Eleven)"],
   "longitude": -115.1633197,
   "latitude": 36.1332881,
   "hours": "",
   "phone": ""
 },
 {
   "id": 305,
   "title": "7-Eleven",
   "address": "3275 S. Eastern Ave  \\nLas Vegas , NV 89109 US",
   "state": "NV",
   "url": "",
   "category": ["Nevada", "PayNearMe Mobile Deposits (7-Eleven)"],
   "longitude": -115.1189718,
   "latitude": 36.1302027,
   "hours": "",
   "phone": ""
 },
 {
   "id": 306,
   "title": "7-Eleven",
   "address": "815 E. Desert Inn Rd \\nLas Vegas , NV 89109 US",
   "state": "NV",
   "url": "",
   "category": ["Nevada", "PayNearMe Mobile Deposits (7-Eleven)"],
   "longitude": -115.1456539,
   "latitude": 36.1294165,
   "hours": "",
   "phone": ""
 },
 {
   "id": 307,
   "title": "7-Eleven",
   "address": "2910 S. Maryland PKWY \\nLas Vegas , NV 89109 US",
   "state": "NV",
   "url": "",
   "category": ["Nevada", "PayNearMe Mobile Deposits (7-Eleven)"],
   "longitude": -115.1362973,
   "latitude": 36.1366305,
   "hours": "",
   "phone": ""
 },
 {
   "id": 308,
   "title": "7-Eleven",
   "address": "4158 Koval Lane \\nLas Vegas , NV 89109 US",
   "state": "NV",
   "url": "",
   "category": ["Nevada", "PayNearMe Mobile Deposits (7-Eleven)"],
   "longitude": -115.1634874,
   "latitude": 36.1134905,
   "hours": "",
   "phone": ""
 },
 {
   "id": 309,
   "title": "7-Eleven",
   "address": "529 N. Rancho Road \\nLas Vegas, NV 89106 US",
   "state": "NV",
   "url": "",
   "category": ["Nevada", "PayNearMe Mobile Deposits (7-Eleven)"],
   "longitude": -115.1760912,
   "latitude": 36.1769346,
   "hours": "",
   "phone": ""
 },
 {
   "id": 310,
   "title": "7-Eleven",
   "address": "6702 W. Cheyenne Ave  \\nLas Vegas , NV 89108 US",
   "state": "NV",
   "url": "",
   "category": ["Nevada", "PayNearMe Mobile Deposits (7-Eleven)"],
   "longitude": -115.2427163,
   "latitude": 36.2185049,
   "hours": "",
   "phone": ""
 },
 {
   "id": 311,
   "title": "7-Eleven",
   "address": "1600 N Decatur BLVD \\nLas Vegas , NV 89108 US",
   "state": "NV",
   "url": "",
   "category": ["Nevada", "PayNearMe Mobile Deposits (7-Eleven)"],
   "longitude": -115.2058172,
   "latitude": 36.1886641,
   "hours": "",
   "phone": ""
 },
 {
   "id": 312,
   "title": "7-Eleven",
   "address": "2350 N. Rainbow BLVD \\nLas Vegas , NV 89108 US",
   "state": "NV",
   "url": "",
   "category": ["Nevada", "PayNearMe Mobile Deposits (7-Eleven)"],
   "longitude": -115.2417496,
   "latitude": 36.2028588,
   "hours": "",
   "phone": ""
 },
 {
   "id": 313,
   "title": "7-Eleven",
   "address": "870 N. Rainbow BLVD \\nLas Vegas , NV 89107 US",
   "state": "NV",
   "url": "",
   "category": ["Nevada", "PayNearMe Mobile Deposits (7-Eleven)"],
   "longitude": -115.241682,
   "latitude": 36.1808233,
   "hours": "",
   "phone": ""
 },
 {
   "id": 314,
   "title": "7-Eleven",
   "address": "4800 W. Washington Ave \\nLas Vegas , NV 89107 US",
   "state": "NV",
   "url": "",
   "category": ["Nevada", "PayNearMe Mobile Deposits (7-Eleven)"],
   "longitude": -115.2064331,
   "latitude": 36.1812148,
   "hours": "",
   "phone": ""
 },
 {
   "id": 315,
   "title": "7-Eleven",
   "address": "901 N. Rancho Drive \\nLas Vegas , NV 89106 US",
   "state": "NV",
   "url": "",
   "category": ["Nevada", "PayNearMe Mobile Deposits (7-Eleven)"],
   "longitude": -115.1799731,
   "latitude": 36.1814193,
   "hours": "",
   "phone": ""
 },
 {
   "id": 316,
   "title": "7-Eleven",
   "address": "1201 E. Sahara Ave \\nLas Vegas , NV 89104 US",
   "state": "NV",
   "url": "",
   "category": ["Nevada", "PayNearMe Mobile Deposits (7-Eleven)"],
   "longitude": -115.136594,
   "latitude": 36.144611,
   "hours": "",
   "phone": ""
 },
 {
   "id": 317,
   "title": "7-Eleven",
   "address": "2202 Paradise Rd \\nLas Vegas , NV 89104 US",
   "state": "NV",
   "url": "",
   "category": ["Nevada", "PayNearMe Mobile Deposits (7-Eleven)"],
   "longitude": -115.1545959,
   "latitude": 36.1448613,
   "hours": "",
   "phone": ""
 },
 {
   "id": 318,
   "title": "7-Eleven",
   "address": "2877 E. Charleston  \\nLas Vegas , NV 89104 US",
   "state": "NV",
   "url": "",
   "category": ["Nevada", "PayNearMe Mobile Deposits (7-Eleven)"],
   "longitude": -115.1111595,
   "latitude": 36.1583571,
   "hours": "",
   "phone": ""
 },
 {
   "id": 319,
   "title": "7-Eleven",
   "address": "1100 Las Vegas BLVD South \\nLas Vegas , NV 89104 US",
   "state": "NV",
   "url": "",
   "category": ["Nevada", "PayNearMe Mobile Deposits (7-Eleven)"],
   "longitude": -115.1482719,
   "latitude": 36.1584207,
   "hours": "",
   "phone": ""
 },
 {
   "id": 320,
   "title": "7-Eleven",
   "address": "2403 South Eastern \\nLas Vegas , NV 89104 US",
   "state": "NV",
   "url": "",
   "category": ["Nevada", "PayNearMe Mobile Deposits (7-Eleven)"],
   "longitude": -115.1183895,
   "latitude": 36.1447829,
   "hours": "",
   "phone": ""
 },
 {
   "id": 321,
   "title": "7-Eleven",
   "address": "1705 Las Vegas BLVD \\nLas Vegas , NV 89104 US",
   "state": "NV",
   "url": "",
   "category": ["Nevada", "PayNearMe Mobile Deposits (7-Eleven)"],
   "longitude": -115.1520342,
   "latitude": 36.1509385,
   "hours": "",
   "phone": ""
 },
 {
   "id": 322,
   "title": "7-Eleven",
   "address": "4581 East Charleston BLVD \\nLas Vegas , NV 89104 US",
   "state": "NV",
   "url": "",
   "category": ["Nevada", "PayNearMe Mobile Deposits (7-Eleven)"],
   "longitude": -115.074798,
   "latitude": 36.158524,
   "hours": "",
   "phone": ""
 },
 {
   "id": 323,
   "title": "7-Eleven",
   "address": "3051 E. Charleston BLVD \\nLas Vegas , NV 89104 US",
   "state": "NV",
   "url": "",
   "category": ["Nevada", "PayNearMe Mobile Deposits (7-Eleven)"],
   "longitude": -115.1058344,
   "latitude": 36.1592853,
   "hours": "",
   "phone": ""
 },
 {
   "id": 324,
   "title": "7-Eleven",
   "address": "3500 S. Rainbow  \\nLas Vegas, NV 89103 US",
   "state": "NV",
   "url": "",
   "category": ["Nevada", "PayNearMe Mobile Deposits (7-Eleven)"],
   "longitude": -115.2422833,
   "latitude": 36.1254707,
   "hours": "",
   "phone": ""
 },
 {
   "id": 325,
   "title": "7-Eleven",
   "address": "4180 East Sahara Ave \\nLas Vegas, NV 89104 US",
   "state": "NV",
   "url": "",
   "category": ["Nevada", "PayNearMe Mobile Deposits (7-Eleven)"],
   "longitude": -115.0833398,
   "latitude": 36.1447809,
   "hours": "",
   "phone": ""
 },
 {
   "id": 326,
   "title": "7-Eleven",
   "address": "1001 East Charleston \\nLas Vegas, NV 89104 US",
   "state": "NV",
   "url": "",
   "category": ["Nevada", "PayNearMe Mobile Deposits (7-Eleven)"],
   "longitude": -115.1395961,
   "latitude": 36.1591587,
   "hours": "",
   "phone": ""
 },
 {
   "id": 327,
   "title": "7-Eleven",
   "address": "4885 S. Jones BLVD \\nLas Vegas , NV 89103 US",
   "state": "NV",
   "url": "",
   "category": ["Nevada", "PayNearMe Mobile Deposits (7-Eleven)"],
   "longitude": -115.2257791,
   "latitude": 36.1002537,
   "hours": "",
   "phone": ""
 },
 {
   "id": 328,
   "title": "7-Eleven",
   "address": "6080 W. Flamingo RD \\nLas Vegas, NV 89103 US",
   "state": "NV",
   "url": "",
   "category": ["Nevada", "PayNearMe Mobile Deposits (7-Eleven)"],
   "longitude": -115.2244036,
   "latitude": 36.1151421,
   "hours": "",
   "phone": ""
 },
 {
   "id": 329,
   "title": "7-Eleven",
   "address": "6885 West Flamingo RD \\nLas Vegas, NV 89103 US",
   "state": "NV",
   "url": "",
   "category": ["Nevada", "PayNearMe Mobile Deposits (7-Eleven)"],
   "longitude": -115.2419746,
   "latitude": 36.114093,
   "hours": "",
   "phone": ""
 },
 {
   "id": 330,
   "title": "7-Eleven",
   "address": "1601 W. Oakey BLVD \\nLas Vegas , NV 89102 US",
   "state": "NV",
   "url": "",
   "category": ["Nevada", "PayNearMe Mobile Deposits (7-Eleven)"],
   "longitude": -115.1629542,
   "latitude": 36.1516914,
   "hours": "",
   "phone": ""
 },
 {
   "id": 331,
   "title": "7-Eleven",
   "address": "5700 W. Charleston Blvd \\nLas, NV 89102 US",
   "state": "NV",
   "url": "",
   "category": ["Nevada", "PayNearMe Mobile Deposits (7-Eleven)"],
   "longitude": -115.2198159,
   "latitude": 36.1595848,
   "hours": "",
   "phone": ""
 },
 {
   "id": 332,
   "title": "7-Eleven",
   "address": "4325 W. Sahara Ave \\nLas Vegas , NV 89102 US",
   "state": "NV",
   "url": "",
   "category": ["Nevada", "PayNearMe Mobile Deposits (7-Eleven)"],
   "longitude": -115.1993411,
   "latitude": 36.1440087,
   "hours": "",
   "phone": ""
 },
 {
   "id": 333,
   "title": "7-Eleven",
   "address": "4910 W. Spring Mountain RD \\nLas Vegas, NV 89102 US",
   "state": "NV",
   "url": "",
   "category": ["Nevada", "PayNearMe Mobile Deposits (7-Eleven)"],
   "longitude": -115.2084421,
   "latitude": 36.1259863,
   "hours": "",
   "phone": ""
 },
 {
   "id": 334,
   "title": "7-Eleven",
   "address": "1624 South Decatur BLVD \\nLas Vegas, NV 89102 US",
   "state": "NV",
   "url": "",
   "category": ["Nevada", "PayNearMe Mobile Deposits (7-Eleven)"],
   "longitude": -115.2087067,
   "latitude": 36.1520189,
   "hours": "",
   "phone": ""
 },
 {
   "id": 335,
   "title": "7-Eleven",
   "address": "4380 W. Desert Inn RD \\nLas Vegas, NV 89102 US",
   "state": "NV",
   "url": "",
   "category": ["Nevada", "PayNearMe Mobile Deposits (7-Eleven)"],
   "longitude": -115.1986914,
   "latitude": 36.1303472,
   "hours": "",
   "phone": ""
 },
 {
   "id": 336,
   "title": "7-Eleven",
   "address": "200 W. Boston Ave \\nLas Vegas, NV 89102 US",
   "state": "NV",
   "url": "",
   "category": ["Nevada", "PayNearMe Mobile Deposits (7-Eleven)"],
   "longitude": -115.1588778,
   "latitude": 36.1477254,
   "hours": "",
   "phone": ""
 },
 {
   "id": 337,
   "title": "7-Eleven",
   "address": "6115 Warm Spring Mountain RD \\nLas Vegas, NV 89101 US",
   "state": "NV",
   "url": "",
   "category": ["Nevada", "PayNearMe Mobile Deposits (7-Eleven)"],
   "longitude": -115.4763217,
   "latitude": 36.1698826,
   "hours": "",
   "phone": ""
 },
 {
   "id": 338,
   "title": "7-Eleven",
   "address": "2220 W. Charleston BLVD \\nLas Vegas, NV 89102 US",
   "state": "NV",
   "url": "",
   "category": ["Nevada", "PayNearMe Mobile Deposits (7-Eleven)"],
   "longitude": -115.1725139,
   "latitude": 36.1593508,
   "hours": "",
   "phone": ""
 },
 {
   "id": 339,
   "title": "7-Eleven",
   "address": "2409 Tam Drive \\nLas Vegas, NV 89102 US",
   "state": "NV",
   "url": "",
   "category": ["Nevada", "PayNearMe Mobile Deposits (7-Eleven)"],
   "longitude": -115.1625898,
   "latitude": 36.1446162,
   "hours": "",
   "phone": ""
 },
 {
   "id": 340,
   "title": "7-Eleven",
   "address": "2691 W. Sahara  \\nLas Vegas, NV 89102 US",
   "state": "NV",
   "url": "",
   "category": ["Nevada", "PayNearMe Mobile Deposits (7-Eleven)"],
   "longitude": -115.1771433,
   "latitude": 36.1437067,
   "hours": "",
   "phone": ""
 },
 {
   "id": 341,
   "title": "7-Eleven",
   "address": "4950 W. Charleston BLVD \\nLas Vegas, NV 89102 US",
   "state": "NV",
   "url": "",
   "category": ["Nevada", "PayNearMe Mobile Deposits (7-Eleven)"],
   "longitude": -115.2082442,
   "latitude": 36.1595071,
   "hours": "",
   "phone": ""
 },
 {
   "id": 342,
   "title": "7-Eleven",
   "address": "228 Las Vegas BLVD \\nLas Vegas, NV 89101 US",
   "state": "NV",
   "url": "",
   "category": ["Nevada", "PayNearMe Mobile Deposits (7-Eleven)"],
   "longitude": -115.1417314,
   "latitude": 36.1677491,
   "hours": "",
   "phone": ""
 },
 {
   "id": 343,
   "title": "7-Eleven",
   "address": "2431 E Bonanza RD \\nLas Vegas, NV 89101 US",
   "state": "NV",
   "url": "",
   "category": ["Nevada", "PayNearMe Mobile Deposits (7-Eleven)"],
   "longitude": -115.1168684,
   "latitude": 36.1743337,
   "hours": "",
   "phone": ""
 },
 {
   "id": 344,
   "title": "7-Eleven",
   "address": "1215 E Stewart Ave \\nLas Vegas, NV 89101 US",
   "state": "NV",
   "url": "",
   "category": ["Nevada", "PayNearMe Mobile Deposits (7-Eleven)"],
   "longitude": -115.1301706,
   "latitude": 36.1682013,
   "hours": "",
   "phone": ""
 },
 {
   "id": 345,
   "title": "7-Eleven",
   "address": "600 Las Vegas BLVD North \\nLas Vegas, NV 89101 US",
   "state": "NV",
   "url": "",
   "category": ["Nevada", "PayNearMe Mobile Deposits (7-Eleven)"],
   "longitude": -115.1369823,
   "latitude": 36.1749235,
   "hours": "",
   "phone": ""
 },
 {
   "id": 346,
   "title": "7-Eleven",
   "address": "1415 E. Fremont  \\nLas Vegas, NV 89101 US",
   "state": "NV",
   "url": "",
   "category": ["Nevada", "PayNearMe Mobile Deposits (7-Eleven)"],
   "longitude": -115.1293847,
   "latitude": 36.1646668,
   "hours": "",
   "phone": ""
 },
 {
   "id": 347,
   "title": "7-Eleven",
   "address": "903 North Pecos BLVD \\nLas Vegas, NV 89101 US",
   "state": "NV",
   "url": "",
   "category": ["Nevada", "PayNearMe Mobile Deposits (7-Eleven)"],
   "longitude": -115.0987908,
   "latitude": 36.1813356,
   "hours": "",
   "phone": ""
 },
 {
   "id": 348,
   "title": "7-Eleven",
   "address": "2416 E. Stewart Ave \\nLas Vegas, NV 89101 US",
   "state": "NV",
   "url": "",
   "category": ["Nevada", "PayNearMe Mobile Deposits (7-Eleven)"],
   "longitude": -115.1162042,
   "latitude": 36.1661217,
   "hours": "",
   "phone": ""
 },
 {
   "id": 349,
   "title": "7-Eleven",
   "address": "1740 East Fremont St \\nLas Vegas, NV 89101 US",
   "state": "NV",
   "url": "",
   "category": ["Nevada", "PayNearMe Mobile Deposits (7-Eleven)"],
   "longitude": -115.1253904,
   "latitude": 36.1621934,
   "hours": "",
   "phone": ""
 },
 {
   "id": 350,
   "title": "7-Eleven",
   "address": "1101 East Bonanza RD \\nLas Vegas, NV 89101 US",
   "state": "NV",
   "url": "",
   "category": ["Nevada", "PayNearMe Mobile Deposits (7-Eleven)"],
   "longitude": -115.1309479,
   "latitude": 36.174363,
   "hours": "",
   "phone": ""
 },
 {
   "id": 351,
   "title": "7-Eleven",
   "address": "431 Rue 13 \\nLas Vegas, NV 89101 US",
   "state": "NV",
   "url": "",
   "category": ["Nevada", "PayNearMe Mobile Deposits (7-Eleven)"],
   "longitude": -115.1349201,
   "latitude": 36.1609931,
   "hours": "",
   "phone": ""
 },
 {
   "id": 352,
   "title": "7-Eleven",
   "address": "900 UTAH ST \\nBOULDER CITY, NV 89005 US",
   "state": "NV",
   "url": "",
   "category": ["Nevada", "PayNearMe Mobile Deposits (7-Eleven)"],
   "longitude": -114.8263606,
   "latitude": 35.97343,
   "hours": "",
   "phone": ""
 },
 {
   "id": 353,
   "title": "7-Eleven",
   "address": "600 15th St \\nSparks , NV 89431 US",
   "state": "NV",
   "url": "",
   "category": ["Nevada", "PayNearMe Mobile Deposits (7-Eleven)"],
   "longitude": -119.7617564,
   "latitude": 39.5390076,
   "hours": "",
   "phone": ""
 },
 {
   "id": 354,
   "title": "7-Eleven",
   "address": "276 Kingsbury Grade  \\nStateline , NV 89449 US",
   "state": "NV",
   "url": "",
   "category": ["Nevada", "PayNearMe Mobile Deposits (7-Eleven)"],
   "longitude": -119.9288613,
   "latitude": 38.9690364,
   "hours": "",
   "phone": ""
 },
 {
   "id": 355,
   "title": "PT's Brewing Company - N Tenaya Way & W Cheyenne Ave",
   "address": "3101 N Tenaya Way \\n Las Vegas, NV 89128 US",
   "state": "NV",
   "url": "http://www.pteglv.com/",
   "category": ["Mobile Deposit Kiosk", "Nevada"],
   "longitude": -115.2512315,
   "latitude": 36.215921,
   "hours": "",
   "phone": "(725) 333-7151"
 },
 {
   "id": 356,
   "title": "PT's Gold - Ann & Camino Al Norte",
   "address": "812 W. Ann Road \\nNorth Las Vegas, NV 89031 US",
   "state": "NV",
   "url": "http://ptstaverns.com/sports-betting",
   "category": ["Mobile Deposit Kiosk", "Nevada"],
   "longitude": -115.153581,
   "latitude": 36.262122,
   "hours": "",
   "phone": "702.649.6162"
 },
 {
   "id": 357,
   "title": "PT's Pub - Rainbow & Cheyenne",
   "address": "3085 N. Rainbow Blvd. \\nLas Vegas, NV 89108 US",
   "state": "NV",
   "url": "http://ptstaverns.com/sports-betting",
   "category": ["Mobile Deposit Kiosk", "Nevada"],
   "longitude": -115.2423628,
   "latitude": 36.2163826,
   "hours": "",
   "phone": "702.395.4242"
 },
 {
   "id": 358,
   "title": "PT's Pub - Lake Mead & Beasley",
   "address": "6055 E. Lake Mead Blvd \\nLas Vegas, NV 89156 US",
   "state": "NV",
   "url": "http://ptstaverns.com/sports-betting",
   "category": ["Mobile Deposit Kiosk", "Nevada"],
   "longitude": -115.040472,
   "latitude": 36.195696,
   "hours": "",
   "phone": "702.452.1737"
 },
 {
   "id": 359,
   "title": "PT's Pub - Vegas Valley & Nellis",
   "address": "2875 S. Nellis Blvd. \\nLas Vegas, NV 89121 US",
   "state": "NV",
   "url": "http://ptstaverns.com/sports-betting",
   "category": ["Mobile Deposit Kiosk", "Nevada"],
   "longitude": -115.067036,
   "latitude": 36.137371,
   "hours": "",
   "phone": "702.641.1750"
 },
 {
   "id": 360,
   "title": "PT's Pub - W Sahara & Decatur",
   "address": "4604 W. Sahara Ave. \\nLas Vegas, NV 89102 US",
   "state": "NV",
   "url": "http://ptstaverns.com/sports-betting",
   "category": ["Mobile Deposit Kiosk", "Nevada"],
   "longitude": -115.2026919,
   "latitude": 36.1445909,
   "hours": "",
   "phone": "702.258.0224"
 },
 {
   "id": 361,
   "title": "PT's Place - E Sahara & 6th St.",
   "address": "532 E. Sahara Ave. \\nLas Vegas, NV 89104 US",
   "state": "NV",
   "url": "http://ptstaverns.com/sports-betting",
   "category": ["Mobile Deposit Kiosk", "Nevada"],
   "longitude": -115.1476521,
   "latitude": 36.1440741,
   "hours": "",
   "phone": "702.792.4121"
 },
 {
   "id": 362,
   "title": "PT's Pub - Rainbow & Alta",
   "address": "739 S. Rainbow Blvd. \\nLas Vegas, NV 89145 US",
   "state": "NV",
   "url": "http://ptstaverns.com/sports-betting",
   "category": ["Mobile Deposit Kiosk", "Nevada"],
   "longitude": -115.2443086,
   "latitude": 36.1646947,
   "hours": "",
   "phone": "702.878.3083"
 },
 {
   "id": 363,
   "title": "PT's Pub - Lake Mead & Rampart",
   "address": "8584 W. Lake Mead Blvd. \\nLas Vegas, NV 89128 US",
   "state": "NV",
   "url": "http://ptstaverns.com/sports-betting",
   "category": ["Mobile Deposit Kiosk", "Nevada"],
   "longitude": -115.2810028,
   "latitude": 36.1988851,
   "hours": "",
   "phone": "702.228.0758"
 },
 {
   "id": 364,
   "title": "PT's Pub - Eastern & Sunridge Heights",
   "address": "10940 S Eastern Ave. \\nHenderson, NV 89052 US",
   "state": "NV",
   "url": "http://ptstaverns.com/sports-betting",
   "category": ["Mobile Deposit Kiosk", "Nevada"],
   "longitude": -115.1008654,
   "latitude": 35.9938016,
   "hours": "",
   "phone": "702-260-1877"
 },
 {
   "id": 365,
   "title": "PT's Pub - Cheyenne & Nellis",
   "address": "3435 N. Nellis Blvd. \\nLas Vegas, NV 89115 US",
   "state": "NV",
   "url": "http://ptstaverns.com/sports-betting",
   "category": ["Mobile Deposit Kiosk", "Nevada"],
   "longitude": -115.0623932,
   "latitude": 36.222454,
   "hours": "",
   "phone": "702.644.6767"
 },
 {
   "id": 366,
   "title": "PT's Pub - Flamingo & Decatur",
   "address": "4825 W. Flamingo Rd. \\nLas Vegas, NV 89103 US",
   "state": "NV",
   "url": "http://ptstaverns.com/sports-betting",
   "category": ["Mobile Deposit Kiosk", "Nevada"],
   "longitude": -115.206845,
   "latitude": 36.114821,
   "hours": "",
   "phone": "702.367.1606"
 },
 {
   "id": 367,
   "title": "PT's Pub - Craig & Decatur",
   "address": "4420 N Decatur Blvd \\nLas Vegas, NV 89130 US",
   "state": "NV",
   "url": "http://ptstaverns.com/sports-betting",
   "category": ["Mobile Deposit Kiosk", "Nevada"],
   "longitude": -115.2075252,
   "latitude": 36.2353857,
   "hours": "",
   "phone": "702.655.4462"
 },
 {
   "id": 368,
   "title": "PT's Pub - Sunset & Pecos",
   "address": "3470 E. Sunset Road \\nLas Vegas, NV 89120 US",
   "state": "NV",
   "url": "http://ptstaverns.com/sports-betting",
   "category": ["Mobile Deposit Kiosk", "Nevada"],
   "longitude": -115.099184,
   "latitude": 36.071805,
   "hours": "",
   "phone": "702.434.4150"
 },
 {
   "id": 369,
   "title": "PT's Pub - Warm Springs & Placid",
   "address": "310 E. Warm Springs \\nLas Vegas, NV 89119 US",
   "state": "NV",
   "url": "http://ptstaverns.com/sports-betting",
   "category": ["Mobile Deposit Kiosk", "Nevada"],
   "longitude": -115.158149,
   "latitude": 36.057578,
   "hours": "",
   "phone": "702.837.9175"
 },
 {
   "id": 370,
   "title": "PT's Pub - Tropicana & Maryland Pkwy",
   "address": "1089 E. Tropicana \\nLas Vegas, NV 89119 US",
   "state": "NV",
   "url": "http://ptstaverns.com/sports-betting",
   "category": ["Mobile Deposit Kiosk", "Nevada"],
   "longitude": -115.1384913,
   "latitude": 36.1008845,
   "hours": "",
   "phone": "702.895.9480"
 },
 {
   "id": 371,
   "title": "PT's Gold - Sunset & Paradise",
   "address": "1661 E. Sunset Rd. \\nLas Vegas, NV 89120 US",
   "state": "NV",
   "url": "http://ptstaverns.com/sports-betting",
   "category": ["Mobile Deposit Kiosk", "Nevada"],
   "longitude": -115.1299366,
   "latitude": 36.0717288,
   "hours": "",
   "phone": "702.616.0723"
 },
 {
   "id": 372,
   "title": "PT's Gold - Centennial & Losee",
   "address": "2135 E. Centennial Pkwy \\nLas Vegas, NV 89081 US",
   "state": "NV",
   "url": "http://ptstaverns.com/sports-betting",
   "category": ["Mobile Deposit Kiosk", "Nevada"],
   "longitude": -115.1203369,
   "latitude": 36.2761369,
   "hours": "",
   "phone": "702.399.1856"
 },
 {
   "id": 373,
   "title": "PT's Pub - Sahara & Nellis",
   "address": "2280 S. Nellis Blvd. \\nLas Vegas, NV 89104 US",
   "state": "NV",
   "url": "http://ptstaverns.com/sports-betting",
   "category": ["Mobile Deposit Kiosk", "Nevada"],
   "longitude": -115.0653489,
   "latitude": 36.147189,
   "hours": "",
   "phone": "702.432.3348"
 },
 {
   "id": 374,
   "title": "PT's Pub - Durango & Twain",
   "address": "3935 S. Durango \\nLas Vegas, NV 89117 US",
   "state": "NV",
   "url": "http://ptstaverns.com/sports-betting",
   "category": ["Mobile Deposit Kiosk", "Nevada"],
   "longitude": -115.279156,
   "latitude": 36.1193274,
   "hours": "",
   "phone": "702.838.5148"
 },
 {
   "id": 375,
   "title": "PT's Place - Charleston & Decatur",
   "address": "1281 S. Decatur \\nLas Vegas, NV 89102 US",
   "state": "NV",
   "url": "http://ptstaverns.com/sports-betting",
   "category": ["Mobile Deposit Kiosk", "Nevada"],
   "longitude": -115.2067694,
   "latitude": 36.1566832,
   "hours": "",
   "phone": "702.870.0087"
 },
 {
   "id": 376,
   "title": "PT's Gold - Hualapai & Twain",
   "address": "3770 S. Hualapai Way \\nLas Vegas, NV 89117 US",
   "state": "NV",
   "url": "http://ptstaverns.com/sports-betting",
   "category": ["Mobile Deposit Kiosk", "Nevada"],
   "longitude": -115.314419,
   "latitude": 36.121194,
   "hours": "",
   "phone": "702.933.3080"
 },
 {
   "id": 377,
   "title": "PT's Gold - Russell & Hualapai",
   "address": "5630 S Hualapai Way \\nLas Vegas, NV 89147 US",
   "state": "NV",
   "url": "http://ptstaverns.com/sports-betting",
   "category": ["Mobile Deposit Kiosk", "Nevada"],
   "longitude": -115.314902,
   "latitude": 36.086515,
   "hours": "",
   "phone": "702.243.0237"
 },
 {
   "id": 378,
   "title": "PT's Gold - Ft Apache & Sunset",
   "address": "6610 S. Fort Apache Road \\nLas Vegas, NV 89148 US",
   "state": "NV",
   "url": "http://ptstaverns.com/sports-betting",
   "category": ["Mobile Deposit Kiosk", "Nevada"],
   "longitude": -115.297067,
   "latitude": 36.068112,
   "hours": "",
   "phone": "702.739.6725"
 },
 {
   "id": 379,
   "title": "PT's Gold - Anthem & Bicentennial Pkwy",
   "address": "2890 Bicentennial Pkwy \\nHenderson, NV 89052 US",
   "state": "NV",
   "url": "http://ptstaverns.com/sports-betting",
   "category": ["Mobile Deposit Kiosk", "Nevada"],
   "longitude": -115.117249,
   "latitude": 35.943252,
   "hours": "",
   "phone": "702.897.1582"
 },
 {
   "id": 380,
   "title": "PT's Gold - Horizon & Horizon Ridge",
   "address": "61 W. Horizon Ridge Parkway \\nHenderson, NV 89012 US",
   "state": "NV",
   "url": "http://ptstaverns.com/sports-betting",
   "category": ["Mobile Deposit Kiosk", "Nevada"],
   "longitude": -114.993687,
   "latitude": 36.0128259,
   "hours": "",
   "phone": "702.566.9025"
 },
 {
   "id": 381,
   "title": "PT's Gold - St. Rose & Eastern",
   "address": "10075 S Eastern Ave. \\nHenderson, NV 89052 US",
   "state": "NV",
   "url": "http://ptstaverns.com/sports-betting",
   "category": ["Mobile Deposit Kiosk", "Nevada"],
   "longitude": -115.11279,
   "latitude": 36.005222,
   "hours": "",
   "phone": "702.269.2350"
 },
 {
   "id": 382,
   "title": "PT's Pub - Hacienda & Decatur",
   "address": "5355 S. Decatur \\nLas Vegas, NV 89118 US",
   "state": "NV",
   "url": "http://ptstaverns.com/sports-betting",
   "category": ["Mobile Deposit Kiosk", "Nevada"],
   "longitude": -115.208392,
   "latitude": 36.092274,
   "hours": "",
   "phone": "702.873.1179"
 },
 {
   "id": 383,
   "title": "PT's Pub - Spring Mountain & Arville",
   "address": "4424 W. Spring Mountain Rd. \\nLas Vegas, NV 89102 US",
   "state": "NV",
   "url": "http://ptstaverns.com/sports-betting",
   "category": ["Mobile Deposit Kiosk", "Nevada"],
   "longitude": -115.1993763,
   "latitude": 36.1263655,
   "hours": "",
   "phone": "702.368.3744"
 },
 {
   "id": 384,
   "title": "PT's Gold - 215 & Decatur",
   "address": "6235 S. Decatur \\nLas Vegas, NV 89118 US",
   "state": "NV",
   "url": "http://ptstaverns.com/sports-betting",
   "category": ["Mobile Deposit Kiosk", "Nevada"],
   "longitude": -115.208502,
   "latitude": 36.076684,
   "hours": "",
   "phone": "702.948.8088"
 },
 {
   "id": 385,
   "title": "PT's Gold - 215 & S. Buffalo",
   "address": "6570 S Buffalo Dr. \\nLas Vegas, NV 89113 US",
   "state": "NV",
   "url": "http://ptstaverns.com/sports-betting",
   "category": ["Mobile Deposit Kiosk", "Nevada"],
   "longitude": -115.2606872,
   "latitude": 36.0692095,
   "hours": "",
   "phone": "702.614.7673"
 },
 {
   "id": 386,
   "title": "PT's Place - Stewart & Nellis",
   "address": "347 N. Nellis Blvd. \\nLas Vegas, NV 89110 US",
   "state": "NV",
   "url": "http://ptstaverns.com/sports-betting",
   "category": ["Mobile Deposit Kiosk", "Nevada"],
   "longitude": -115.0622276,
   "latitude": 36.1694104,
   "hours": "",
   "phone": "702.452.9555"
 },
 {
   "id": 387,
   "title": "PT's Gold - Silverado Ranch & Maryland Pkwy",
   "address": "1383 E. Silverado Ranch Blvd \\nLas Vegas, NV 89123 US",
   "state": "NV",
   "url": "http://ptstaverns.com/sports-betting",
   "category": ["Mobile Deposit Kiosk", "Nevada"],
   "longitude": -115.1344708,
   "latitude": 36.0132734,
   "hours": "",
   "phone": "702.968.3013"
 },
 {
   "id": 388,
   "title": "PT's Gold - Bermuda & Silverado Ranch",
   "address": "582 E. Silverado Ranch Blvd \\nLas Vegas, NV 89123 US",
   "state": "NV",
   "url": "http://ptstaverns.com/sports-betting",
   "category": ["Mobile Deposit Kiosk", "Nevada"],
   "longitude": -115.15086,
   "latitude": 36.013564,
   "hours": "",
   "phone": "702.933.0496"
 },
 {
   "id": 389,
   "title": "PT’s Pub – Tropicana & Fort Apache",
   "address": "9435 W Tropicana Ave  \\nLas Vegas, NV 89147 US",
   "state": "NV",
   "url": "",
   "category": ["Mobile Deposit Kiosk", "Nevada"],
   "longitude": -115.3000631,
   "latitude": 36.099337,
   "hours": "",
   "phone": "702.871.6682"
 },
 {
   "id": 390,
   "title": "PT’s Gold – Post & 215",
   "address": "9050 W Post Road \\nLas Vegas, NV 89148 US",
   "state": "NV",
   "url": "",
   "category": ["Mobile Deposit Kiosk", "Nevada"],
   "longitude": -115.2899561,
   "latitude": 36.0755982,
   "hours": "",
   "phone": "702-798-7678"
 },
 {
   "id": 391,
   "title": "PT’s Pub – Boulder & Horizon",
   "address": "1331 S Boulder Hwy Suite 100 \\nHenderson, NV 89015 US",
   "state": "NV",
   "url": "",
   "category": ["Mobile Deposit Kiosk", "Nevada"],
   "longitude": -114.9579756,
   "latitude": 36.0148506,
   "hours": "",
   "phone": "702.307.5111"
 },
 {
   "id": 392,
   "title": "PT's Ranch",
   "address": "8780 S Lindell Rd\\n8780 South Lindell Road\\nLas Vegas\\n89139\\nUnited States",
   "state": "NV",
   "url": "",
   "category": ["Mobile Deposit Kiosk"],
   "longitude": -115.2164733,
   "latitude": 36.0298693,
   "hours": "",
   "phone": ""
 },
 {
   "id": 393,
   "title": "PT's Gold Decatur",
   "address": "4935 W Warm Springs Rd\\n4935 West Warm Springs Road\\nLas Vegas\\n89118\\nUnited States",
   "state": "NV",
   "url": "",
   "category": ["Mobile Deposit Kiosk"],
   "longitude": -115.2186253,
   "latitude": 36.0566956,
   "hours": "",
   "phone": ""
 },
 {
   "id": 394,
   "title": "PT's Gold Mountain's Edge",
   "address": "9363 S Buffalo Dr\\n9363 South Buffalo Drive\\nLas Vegas\\n89178\\nUnited States",
   "state": "NV",
   "url": "",
   "category": ["Mobile Deposit Kiosk"],
   "longitude": -115.2611537,
   "latitude": 36.0196706,
   "hours": "",
   "phone": ""
 },
 {
   "id": 395,
   "title": "PT's Gold Cactus",
   "address": "10520 S Las Vegas Blvd\\n10520 South Las Vegas Boulevard\\nEnterprise\\n89183\\nUnited States",
   "state": "NV",
   "url": "",
   "category": ["Mobile Deposit Kiosk"],
   "longitude": -115.1724639,
   "latitude": 35.99868379999999,
   "hours": "",
   "phone": ""
 }
]